place_id,google_name,google_address,google_rating,google_user_rating_count,google_price_level,google_primary_type,google_lat,google_lng,google_website,norm_name,distance_km,match_score,matched_to_michelin,matched_to_cuisine,matched_to_price
ChIJzTjcdhFbwokRNQXXin284nc,Sarku Japan,"77 Chambers St, New York, NY 10007, USA",4.2,59.0,PRICE_LEVEL_INEXPENSIVE,japanese_restaurant,40.714563999999996,-74.0066695,https://www.sarkujapan.com/,sarku japan,0.09041437648882439,39.68585623511176,Icca,Japanese,
ChIJv3vgwFZbwokRwP07bRgRYdM,Artesano,"90 Chambers St Unit A, New York, NY 10007, USA",4.6,990.0,PRICE_LEVEL_MODERATE,peruvian_restaurant,40.7144772,-74.0074369,http://artesanorestaurant.com/,artesano,0.028639613939179683,9.613603860608203,Icca,Japanese,
ChIJU0lt1x5awokRcd1w1u4Ju9Q,Le Pain Quotidien,"81 W Broadway, New York, NY 10007, USA",4.1,832.0,PRICE_LEVEL_MODERATE,restaurant,40.7150161,-74.0092841,https://lepainquotidien.com/us/stores/130:%20tribeca?utm_source=gmb&utm_medium=business-listing,le pain quotidien,0.06549932062901688,47.66500679370983,Chambers,Contemporary,
ChIJBfstmZVbwokR46K9zOToCeM,Smyth Tavern,"85 W Broadway, New York, NY 10007, USA",4.3,229.0,PRICE_LEVEL_VERY_EXPENSIVE,restaurant,40.715220599999995,-74.009131,https://www.smythtavern.com/,smyth tavern,0.04769215366911686,41.813078463308834,Chambers,Contemporary,
ChIJ87qt5hhawokRfDHmVxCxPJY,CUT by Wolfgang Puck,"99 Church St, New York, NY 10007, USA",4.4,779.0,PRICE_LEVEL_EXPENSIVE,restaurant,40.712855399999995,-74.0093466,https://wolfgangpuck.com/dining/cut-new-york/,cut by wolfgang puck,0.07159484605264715,47.07405153947353,Ito,Japanese,
ChIJRbp8aGhbwokRdld3no39YYo,Burger Village,"120 Church St, New York, NY 10007, USA",4.6,1591.0,PRICE_LEVEL_MODERATE,hamburger_restaurant,40.713719999999995,-74.00923600000002,https://www.burgervillage.com/,burger village,0.1038490059688591,8.961509940311409,Ito,Japanese,
ChIJnbEEPiBawokRN3BGCWpw2nE,69 Leonard Street,"69 Leonard St, New York, NY 10013, USA",4.5,241.0,PRICE_LEVEL_VERY_EXPENSIVE,japanese_restaurant,40.7176901,-74.0053795,http://www.69leonardstreet.com/,69 leonard street,0.0891745043643548,101.51825495635644,Atera,Contemporary,PRICE_LEVEL_VERY_EXPENSIVE
ChIJ256pFiBawokR-JFcFPAz7Ig,Two Hands,"251 Church St, New York, NY 10013, USA",4.4,1305.0,PRICE_LEVEL_MODERATE,australian_restaurant,40.7177931,-74.0054175,https://www.twohandshospitality.com/,two hands,0.08793384975756914,9.120661502424309,Farra,Contemporary,
ChIJk0B7xiFawokRqSwW1TZodg8,Atomic Wings,"311 Broadway, New York, NY 10007, USA",3.8,415.0,PRICE_LEVEL_INEXPENSIVE,chicken_wings_restaurant,40.715638399999996,-74.0054591,https://www.atomicwings.com/?utm_medium=yext&utm_source=gmb,atomic wings,0.15618122321730007,2.5881877678269998,Farra,Contemporary,
ChIJ7-SBzh9awokRKB5djQIBiC0,Zutto Japanese American Pub,"77 Hudson St, New York, NY 10013, USA",4.4,986.0,PRICE_LEVEL_MODERATE,japanese_restaurant,40.7184362,-74.0090421,https://zuttonyc.com/tribeca-location/,zutto japanese american pub,0.1723449749902355,8.136550250097645,Huso,Contemporary,
ChIJhSLc_R5awokReYEI4dyODxA,Forgione,"30 Hudson St, New York, NY 10013, USA",4.6,763.0,PRICE_LEVEL_EXPENSIVE,american_restaurant,40.7166614,-74.0089507,http://www.marcforgione.com/,forgione,0.15386378818640148,6.091362118135985,Huso,Contemporary,
ChIJTXb6QRdawokRPZZKPYmvWcU,The Capital Grille,"120 Broadway, New York, NY 10271, USA",4.6,1410.0,PRICE_LEVEL_VERY_EXPENSIVE,fine_dining_restaurant,40.707847,-74.010226,https://www.thecapitalgrille.com/locations/ny/new-york/nyc-wall-street/8039?cmpid=br:tcg_ag:ie_ch:loc_ca:TCGGMB_sn:gmb_gt:new-york-ny-8039_pl:locurl_rd:1035,the capital grille,0.11446437197639586,148.85535628023604,Manhatta,Contemporary,PRICE_LEVEL_VERY_EXPENSIVE
ChIJv-a4KB5awokR6TLKvHwGqQE,American Cut,"363 Greenwich St, New York, NY 10013, USA",4.5,1025.0,PRICE_LEVEL_VERY_EXPENSIVE,steak_house,40.7191028,-74.0100227,https://www.americancutsteakhouse.com/,american cut,0.08555851799803853,109.14441482001962,Jungsik New York,Korean,PRICE_LEVEL_VERY_EXPENSIVE
ChIJlfNObvVZwokRYKVKPX21uOU,Mr Chow,"121 Hudson St, New York, NY 10013, USA",3.8,615.0,PRICE_LEVEL_EXPENSIVE,restaurant,40.720095,-74.0088869,https://www.mrchow.com/,mr chow,0.11196137620754838,145.03038623792452,Tamarind,Indian,PRICE_LEVEL_EXPENSIVE
ChIJTWkuhfVZwokRS_go-fdp7Vs,Locanda Verde Tribeca,"377 Greenwich St, New York, NY 10013, USA",4.4,2314.0,PRICE_LEVEL_EXPENSIVE,italian_restaurant,40.7198401,-74.00993439999999,http://locandaverdenyc.com/,locanda verde tribeca,0.11999787904565651,108.80002120954343,Tamarind,Indian,PRICE_LEVEL_EXPENSIVE
ChIJu7pIuopZwokRvIsndYhPg4U,Frenchette,"241 W Broadway, New York, NY 10013, USA",4.4,1274.0,PRICE_LEVEL_EXPENSIVE,french_restaurant,40.7196192,-74.0056937,http://frenchettenyc.com/,frenchette,0.04512002435679298,9.54879975643207,One White Street,Contemporary,
ChIJ6wjtl4pZwokRC66KkQa9x9U,The Django,"The Roxy Hotel, Cellar Level, 2 6th Ave, New York, NY 10013, USA",4.1,1193.0,PRICE_LEVEL_EXPENSIVE,bar,40.7194085,-74.0049093,http://www.thedjangonyc.com/,the django,0.08935856893975382,9.106414310602462,One White Street,Contemporary,
ChIJiTRiUJNbwokRs4JMTCp1L80,Mikado Sushi,"164 Pearl St, New York, NY 10005, USA",4.7,1014.0,PRICE_LEVEL_MODERATE,japanese_restaurant,40.705921,-74.00748390000001,http://www.newmikadonyc.com/,mikado sushi,0.030776920323029637,9.692230796769703,Crown Shy,Contemporary,PRICE_LEVEL_EXPENSIVE
ChIJ9xrD0xdawokRYFEJX6G7JC0,Chipotle Mexican Grill,"100 Maiden Ln, New York, NY 10038, USA",3.9,874.0,PRICE_LEVEL_INEXPENSIVE,mexican_restaurant,40.706725399999996,-74.00693509999999,https://locations.chipotle.com/ny/new-york/100-maiden-ln?utm_source=google&utm_medium=yext&utm_campaign=yext_listings?restaurant=950,chipotle mexican grill,0.07692579052746742,7.970742094725326,Crown Shy,Contemporary,PRICE_LEVEL_EXPENSIVE
ChIJp4OyaxdawokR7vy7nVo3aYI,Ashby's,"110 Broadway, New York, NY 10271, USA",3.4,56.0,PRICE_LEVEL_INEXPENSIVE,restaurant,40.7082523,-74.0109974,https://www.ashbysnyctogo.com/ny120/menu.php,ashbys,0.09676637181982692,39.592336281801735,Maison Passerelle,French,
ChIJTXb6QRdawokRPZZKPYmvWcU,The Capital Grille,"120 Broadway, New York, NY 10271, USA",4.6,1410.0,PRICE_LEVEL_VERY_EXPENSIVE,fine_dining_restaurant,40.707847,-74.010226,https://www.thecapitalgrille.com/locations/ny/new-york/nyc-wall-street/8039?cmpid=br:tcg_ag:ie_ch:loc_ca:TCGGMB_sn:gmb_gt:new-york-ny-8039_pl:locurl_rd:1035,the capital grille,0.1247722534403041,8.75227746559696,Maison Passerelle,French,
ChIJu7pIuopZwokRvIsndYhPg4U,Frenchette,"241 W Broadway, New York, NY 10013, USA",4.4,1274.0,PRICE_LEVEL_EXPENSIVE,french_restaurant,40.7196192,-74.0056937,http://frenchettenyc.com/,frenchette,0.013059859447758986,49.86940140552241,Eulalie,French,
ChIJ6wjtl4pZwokRC66KkQa9x9U,The Django,"The Roxy Hotel, Cellar Level, 2 6th Ave, New York, NY 10013, USA",4.1,1193.0,PRICE_LEVEL_EXPENSIVE,bar,40.7194085,-74.0049093,http://www.thedjangonyc.com/,the django,0.08154048199622173,9.184595180037782,Eulalie,French,
ChIJM3elBidawokRJKPC55N6pQI,Mei Lai Wah,"41 Mott St, New York, NY 10013, USA",4.4,3769.0,PRICE_LEVEL_INEXPENSIVE,chinese_restaurant,40.715172599999995,-73.9989063,,mei lai wah,0.015494938230361896,109.84505061769639,Cha Kee,Asian,PRICE_LEVEL_INEXPENSIVE
ChIJ-eS_PhdbwokRjlCFlhmIGdU,House of Joy,"28 Pell St, New York, NY 10013, USA",4.1,1362.0,PRICE_LEVEL_INEXPENSIVE,dim_sum_restaurant,40.7150183,-73.99849120000002,https://houseofjoynyc.com/,house of joy,0.05092766295296246,109.49072337047038,Cha Kee,Asian,PRICE_LEVEL_INEXPENSIVE
ChIJT6iakMdbwokRr7eIzot7L5Y,FARIDA - Finest World Dishes,"32 Cedar St, New York, NY 10005, USA",4.6,2134.0,PRICE_LEVEL_MODERATE,restaurant,40.707124199999996,-74.0083922,https://www.farida.us/,farida finest world dishes,0.0865018500396169,49.13498149960383,Saga,Contemporary,PRICE_LEVEL_VERY_EXPENSIVE
ChIJiTRiUJNbwokRs4JMTCp1L80,Mikado Sushi,"164 Pearl St, New York, NY 10005, USA",4.7,1014.0,PRICE_LEVEL_MODERATE,japanese_restaurant,40.705921,-74.00748390000001,http://www.newmikadonyc.com/,mikado sushi,0.06928416745008831,9.307158325499117,Saga,Contemporary,PRICE_LEVEL_VERY_EXPENSIVE
ChIJ5T85KohZwokRBoseuq6D4W0,Joe's Ginger,"25 Pell St, New York, NY 10013, USA",2.9,1113.0,PRICE_LEVEL_INEXPENSIVE,chinese_restaurant,40.7147547,-73.99836479999999,http://joesginger.com/,joes ginger,0.01957764346794694,49.804223565320534,Lei,Chinese,
ChIJdchGBSdawokRrNBainqPr-I,Mei Lai Wah | Wonton Noodle Garden,"23 Pell St, New York, NY 10038, USA",4.3,1945.0,PRICE_LEVEL_INEXPENSIVE,chinese_restaurant,40.7148058,-73.9982129,http://www.wontonnoodlegarden.com/,mei lai wah wonton noodle garden,0.0238792582608901,49.7612074173911,Lei,Chinese,
ChIJmZTuWtBbwokRWxbraRwj8xA,Tasty Hand - Pulled Noodles,"1 Doyers St, New York, NY 10013, USA",4.4,1469.0,PRICE_LEVEL_INEXPENSIVE,chinese_noodle_restaurant,40.7142425,-73.9978903,http://www.tastyhandpullednoodlesnyc.com/,tasty hand pulled noodles,0.028087716210711475,9.719122837892884,Bridges,Contemporary,
ChIJyW-u9iZawokRY1sHXGzZHGI,Chinese Tuxedo,"5 Doyers St, New York, NY 10013, USA",4.4,1318.0,PRICE_LEVEL_EXPENSIVE,chinese_restaurant,40.7143302,-73.9980357,http://www.chinesetuxedo.com/,chinese tuxedo,0.03344234842346686,9.66557651576533,Bridges,Contemporary,
ChIJ9VuoTgBbwokRifuAUSV9RYk,Fok Noodles,"5 Catherine St, New York, NY 10038, USA",4.8,141.0,PRICE_LEVEL_MODERATE,chinese_restaurant,40.7138196,-73.9972913,,fok noodles,0.06996812219294371,140.71031877807056,Dim Sum Go Go,Chinese,PRICE_LEVEL_MODERATE
ChIJkeYlAuxbwokR_4cMU5BdecY,Panda,"23 Catherine St, New York, NY 10038, USA",3.9,104.0,PRICE_LEVEL_MODERATE,chinese_restaurant,40.7129073,-73.9970659,http://orderpandachineserestaurant.com/,panda,0.07148919977447445,140.32510800225523,Dim Sum Go Go,Chinese,PRICE_LEVEL_MODERATE
ChIJ7ek7qdRbwokRt3sVsitU9r4,Watermark,"78 South St Pier 15, New York, NY 10038, USA",4.3,3591.0,PRICE_LEVEL_MODERATE,restaurant,40.704516999999996,-74.003123,https://watermarkny.com/,watermark,0.14993764886470315,48.50062351135297,Carne Mare,Steakhouse,PRICE_LEVEL_EXPENSIVE
ChIJ48y8-TxawokROJTPwB3cxz8,The Seaport,"19 Fulton St, New York, NY 10038, USA",4.5,2357.0,PRICE_LEVEL_MODERATE,historical_landmark,40.70647830000001,-74.0032751,https://theseaport.nyc/,the seaport,0.13268572313684665,8.673142768631534,Carne Mare,Steakhouse,PRICE_LEVEL_EXPENSIVE
ChIJ2XIY-CZawokRokUjxBSl5hw,Joe's Shanghai,"46 Bowery, New York, NY 10013, USA",4.2,6138.0,PRICE_LEVEL_INEXPENSIVE,chinese_restaurant,40.7156656,-73.99669879999999,https://order.toasttab.com/online/joes-shanghai,joes shanghai,0.05580531876786554,9.441946812321344,Yamada,Japanese,
ChIJk31a6yZawokRCP9vIx0Us18,Noodle Village,"70 Mott St, New York, NY 10013, USA",4.2,1995.0,PRICE_LEVEL_INEXPENSIVE,chinese_restaurant,40.7162331,-73.99797219999999,http://nynoodlevillage.com/,noodle village,0.06873216312488986,9.3126783687511,Yamada,Japanese,
ChIJA9S9jIpZwokRZTF0bHWwXYU,Macao Trading Company,"311 Church St, New York, NY 10013, USA",4.5,1396.0,PRICE_LEVEL_EXPENSIVE,bar,40.7196336,-74.0039218,https://www.macaonyc.com/,macao trading company,0.15825610343439545,108.41743896565605,La Mercerie,French,PRICE_LEVEL_EXPENSIVE
ChIJDVWAj4lZwokRiQQKeBiTHcI,NOMO Kitchen,"9 Crosby St, New York, NY 10013, USA",3.9,1275.0,PRICE_LEVEL_EXPENSIVE,american_restaurant,40.7198649,-74.000234,https://www.nomosoho.com/nomo-soho-kitchen/,nomo kitchen,0.16622813756821372,108.33771862431786,La Mercerie,French,PRICE_LEVEL_EXPENSIVE
ChIJDVWAj4lZwokRiQQKeBiTHcI,NOMO Kitchen,"9 Crosby St, New York, NY 10013, USA",3.9,1275.0,PRICE_LEVEL_EXPENSIVE,american_restaurant,40.7198649,-74.000234,https://www.nomosoho.com/nomo-soho-kitchen/,nomo kitchen,0.08329392344772626,9.167060765522738,Le Coucou,French,PRICE_LEVEL_VERY_EXPENSIVE
ChIJf31dgkxZwokR3nfEwC0M3e0,Jing Fong,"202 Centre St, New York, NY 10013, USA",3.7,1065.0,PRICE_LEVEL_MODERATE,chinese_restaurant,40.718894899999995,-73.99907739999999,http://jingfongny.com/,jing fong,0.09663763552173908,9.03362364478261,Le Coucou,French,PRICE_LEVEL_VERY_EXPENSIVE
ChIJlfNObvVZwokRYKVKPX21uOU,Mr Chow,"121 Hudson St, New York, NY 10013, USA",3.8,615.0,PRICE_LEVEL_EXPENSIVE,restaurant,40.720095,-74.0088869,https://www.mrchow.com/,mr chow,0.21772337712609835,43.97276622873902,Muku,Japanese,
ChIJ7cmhqPVZwokRcWzLzM5e-5A,Wolfgang's Steakhouse,"409 Greenwich St, New York, NY 10013, USA",4.4,1661.0,PRICE_LEVEL_VERY_EXPENSIVE,steak_house,40.721252,-74.00966439999999,https://wolfgangssteakhouse.net/,wolfgangs steakhouse,0.07395685878219473,9.260431412178052,Muku,Japanese,
ChIJlfNObvVZwokRYKVKPX21uOU,Mr Chow,"121 Hudson St, New York, NY 10013, USA",3.8,615.0,PRICE_LEVEL_EXPENSIVE,restaurant,40.720095,-74.0088869,https://www.mrchow.com/,mr chow,0.21772337712609835,43.97276622873902,L’abeille à Côté,French,
ChIJgWmOm_VZwokRSUIfoxNB9ng,Yves,"385 Greenwich St, New York, NY 10013, USA",4.1,323.0,PRICE_LEVEL_MODERATE,french_restaurant,40.7202175,-74.0099559,http://www.yves-nyc.com/,yves,0.1854039909587925,41.37596009041207,L’abeille à Côté,French,
ChIJ7cmhqPVZwokRcWzLzM5e-5A,Wolfgang's Steakhouse,"409 Greenwich St, New York, NY 10013, USA",4.4,1661.0,PRICE_LEVEL_VERY_EXPENSIVE,steak_house,40.721252,-74.00966439999999,https://wolfgangssteakhouse.net/,wolfgangs steakhouse,0.09109411201047911,109.0890588798952,L’Abeille,French,PRICE_LEVEL_VERY_EXPENSIVE
ChIJ11vJWohZwokRpB812SavVWI,Hometown Hotpot & BBQ,"194 Grand St, New York, NY 10013, USA",4.3,2103.0,PRICE_LEVEL_MODERATE,hot_pot_restaurant,40.719403,-73.996849,http://hometownhotpot.com/,hometown hotpot bbq,0.038933671290118675,109.61066328709882,Nyonya,Malaysian,PRICE_LEVEL_MODERATE
ChIJt_msWohZwokRlV0jDszwxFo,Tomiño Taberna Gallega,"192 Grand St, New York, NY 10013, USA",4.6,2260.0,PRICE_LEVEL_MODERATE,spanish_restaurant,40.719509099999996,-73.9968921,http://www.tominonyc.com/,tomio taberna gallega,0.05034117537984829,109.49658824620151,Nyonya,Malaysian,PRICE_LEVEL_MODERATE
ChIJDSHyO8RbwokRZ7rYCQXGBNQ,98K Chicken&Burgers,"7 Allen St, New York, NY 10002, USA",3.9,98.0,PRICE_LEVEL_INEXPENSIVE,restaurant,40.7148118,-73.9930744,https://www.98kchickenburger.com/,98k chickenburgers,0.015394808751279224,40.8260519124872,Corima,Mexican,
ChIJoR3RZyhawokRwR91d6hJvvY,Super Taste,"26 Eldridge St, New York, NY 10002, USA",4.6,1537.0,PRICE_LEVEL_INEXPENSIVE,chinese_restaurant,40.715066199999995,-73.9933358,http://www.noodle5888.com/,super taste,0.04671926002023701,9.53280739979763,Corima,Mexican,
ChIJDSHyO8RbwokRZ7rYCQXGBNQ,98K Chicken&Burgers,"7 Allen St, New York, NY 10002, USA",3.9,98.0,PRICE_LEVEL_INEXPENSIVE,restaurant,40.7148118,-73.9930744,https://www.98kchickenburger.com/,98k chickenburgers,0.10700311181049489,39.90996888189505,Shabushabu Mayumon,Japanese,
ChIJD-1a9ChawokRnTSi_Et62x4,Kiki's,"130 Division St, New York, NY 10002, USA",4.4,2462.0,PRICE_LEVEL_MODERATE,greek_restaurant,40.7145497,-73.9918591,http://kikisnyc.com/,kikis,0.03846684082202638,9.615331591779736,Shabushabu Mayumon,Japanese,
ChIJQ9SZB4FZwokR4-JVxNDiHuw,Nolita Pizza,"68 Kenmare St, New York, NY 10012, USA",4.8,1390.0,PRICE_LEVEL_MODERATE,pizza_restaurant,40.7208882,-73.9962251,https://ordernolitapizza.com/,nolita pizza,0.0521812501529042,109.47818749847096,Thai Diner,Thai,PRICE_LEVEL_MODERATE
ChIJa128pIhZwokRnoPKJguYBCA,Balzem,"202 Mott St, New York, NY 10012, USA",4.6,1582.0,PRICE_LEVEL_MODERATE,mediterranean_restaurant,40.7213239,-73.9954644,https://www.balzem.com/,balzem,0.06956563748766084,109.3043436251234,Thai Diner,Thai,PRICE_LEVEL_MODERATE
ChIJ58HssClawokRefq6VNIOrlY,Metrograph,"7 Ludlow St, New York, NY 10002, USA",4.6,1465.0,PRICE_LEVEL_EXPENSIVE,movie_theater,40.715143,-73.9911467,http://metrograph.com/,metrograph,0.035379677480190434,109.6462032251981,Cervo’s,Spanish,PRICE_LEVEL_EXPENSIVE
ChIJ0XJEBIZZwokR3iPgClK9uEg,Peasant,"194 Elizabeth St, New York, NY 10012, USA",4.4,793.0,PRICE_LEVEL_EXPENSIVE,italian_restaurant,40.721696,-73.994272,http://www.peasantnyc.com/,peasant,0.07759170172472186,107.15408298275278,Wayan,Indonesian,PRICE_LEVEL_EXPENSIVE
ChIJqYLInohZwokRyVt0R66Ws5Q,Cocoron,"16 Delancey St, New York, NY 10002, USA",4.4,1341.0,PRICE_LEVEL_MODERATE,restaurant,40.720301,-73.9930462,https://www.cocoronandgoemon.com/,cocoron,0.09031175424154969,149.0968824575845,Potluck Club,Chinese,PRICE_LEVEL_MODERATE
ChIJ3VMIfohZwokRxx2Nv7un3ME,Piacere,"351 Broome St, New York, NY 10013, USA",4.6,1118.0,PRICE_LEVEL_MODERATE,italian_restaurant,40.719702999999996,-73.9951354,http://piacerenyc.com/,piacere,0.1305636335033391,108.6943636649666,Potluck Club,Chinese,PRICE_LEVEL_MODERATE
ChIJqW6yuoxZwokRHcasV7UhqPU,La Sirène Soho,"558 Broome St, New York, NY 10013, USA",4.6,661.0,PRICE_LEVEL_EXPENSIVE,french_restaurant,40.724543,-74.005667,http://www.lasirenenyc.com/,la sirne soho,0.12804595801957497,105.32954041980425,Altro Paradiso,Italian,PRICE_LEVEL_EXPENSIVE
ChIJb9AlFyhZwokRGGKmqrEq84s,Bondi sushi,"75 Kenmare St, New York, NY 10012, USA",4.2,314.0,PRICE_LEVEL_MODERATE,restaurant,40.7212907,-73.9963598,http://bondisushi.com/,bondi sushi,0.09792935540651063,42.16070644593489,Ma•dé,South East Asian,
ChIJa128pIhZwokRnoPKJguYBCA,Balzem,"202 Mott St, New York, NY 10012, USA",4.6,1582.0,PRICE_LEVEL_MODERATE,mediterranean_restaurant,40.7213239,-73.9954644,https://www.balzem.com/,balzem,0.022652618252832865,9.773473817471672,Ma•dé,South East Asian,
ChIJRUnhkElZwokRBRSJxl_Up68,Vanessa's Dumpling House,"118A Eldridge St, New York, NY 10002, USA",4.3,858.0,PRICE_LEVEL_INEXPENSIVE,restaurant,40.7183133,-73.99175610000002,https://vanessas.com/,vanessas dumpling house,0.09635726222755873,47.61642737772441,Comal,Mexican,
ChIJx-dP1L9ZwokRUJWDOIcgTG4,Wayla,"100 Forsyth St, New York, NY 10002, USA",4.5,1132.0,PRICE_LEVEL_MODERATE,thai_restaurant,40.7182852,-73.9926038,https://www.waylanyc.com/,wayla,0.10034274662631942,8.996572533736806,Comal,Mexican,
ChIJQdc5fylawokR6k62R41yzqI,Hawa Smoothies & Bubble Tea,"181A E Broadway, New York, NY 10002, USA",4.7,255.0,PRICE_LEVEL_INEXPENSIVE,restaurant,40.7140278,-73.9892776,http://www.hawajuice.com/,hawa smoothies bubble tea,0.10942888207472291,41.455711179252766,Tolo,Chinese,
ChIJbb-1BilawokRU_jdJ4pt7a8,Carol's Bun,"139 E Broadway, New York, NY 10002, USA",4.7,231.0,PRICE_LEVEL_MODERATE,chinese_restaurant,40.713799699999996,-73.9914345,http://www.carolsbun.com/?utm_source=gmb&utm_medium=website,carols bun,0.0982422621101994,41.327577378898006,Tolo,Chinese,
ChIJWQs914ZZwokRl55uI6owqC4,Dudleys,"85 Orchard St, New York, NY 10002, USA",4.4,1809.0,PRICE_LEVEL_MODERATE,restaurant,40.718068599999995,-73.9904389,https://www.dudleysnyc.com/,dudleys,0.032199624780325425,149.67800375219676,Dirt Candy,Vegetarian,PRICE_LEVEL_MODERATE
ChIJx8xdGIdZwokRT15ilvIVcTM,Congee Village,"100 Allen St, New York, NY 10002, USA",4.1,2549.0,PRICE_LEVEL_MODERATE,chinese_restaurant,40.718658999999995,-73.990354,https://congeenyc.com/,congee village,0.09353462739825404,109.06465372601745,Dirt Candy,Vegetarian,PRICE_LEVEL_MODERATE
ChIJPxACDBpbwokROc8Ds_8m9WQ,Harriet's Rooftop,"60 Furman St Floor 11, Brooklyn, NY 11201, USA",3.9,838.0,PRICE_LEVEL_EXPENSIVE,restaurant,40.7023592,-73.995592,https://www.1hotels.com/brooklyn-bridge/taste/harriets-rooftop?utm_source=google-gbp&utm_medium=organic&utm_campaign=gbp,harriets rooftop,0.17728434226754897,46.60715657732451,The River Café,Contemporary,PRICE_LEVEL_VERY_EXPENSIVE
ChIJv1e4pTBawokRBEaJGGqb1YQ,Luke's Lobster Brooklyn Bridge Park,"11 Water St, Brooklyn, NY 11201, USA",4.3,1343.0,PRICE_LEVEL_MODERATE,seafood_restaurant,40.703479699999995,-73.9941407,https://lukeslobster.com/pages/brooklyn-bridge-park?utm_source=google&utm_medium=places&utm_campaign=brooklynbridgepark&utm_content=main,lukes lobster brooklyn bridge park,0.0676970199150566,9.323029800849435,The River Café,Contemporary,PRICE_LEVEL_VERY_EXPENSIVE
ChIJ3RB9uI1ZwokRxCJXW-HpYZI,The Dutch,"131 Sullivan St, New York, NY 10012, USA",4.3,2413.0,PRICE_LEVEL_EXPENSIVE,american_restaurant,40.7265328,-74.0021536,http://www.thedutchnyc.com/,the dutch,0.03909930737629783,109.60900692623702,Raoul's,French,PRICE_LEVEL_EXPENSIVE
ChIJ7d_Zy41ZwokRJ8-pmekV39A,Omen Azen,"113 Thompson St, New York, NY 10012, USA",4.3,183.0,PRICE_LEVEL_EXPENSIVE,japanese_restaurant,40.7260008,-74.0019587,http://www.omen-azen.com/,omen azen,0.02478406093826433,101.58215939061735,Raoul's,French,PRICE_LEVEL_EXPENSIVE
ChIJS7q7to1ZwokRWbN1t_AXYME,Blue Ribbon Sushi,"119 Sullivan St, New York, NY 10012, USA",4.6,1860.0,PRICE_LEVEL_MODERATE,sushi_restaurant,40.726092,-74.00240819999999,https://www.blueribbonsushi119.com/,blue ribbon sushi,0.06497384575585063,109.35026154244149,Pinch Chinese,Chinese,PRICE_LEVEL_MODERATE
ChIJzbrFBVZZwokRQNIBF1wbYE8,Revelie,"179 Prince St, New York, NY 10012, USA",4.7,268.0,PRICE_LEVEL_MODERATE,diner,40.7264248,-74.0019472,http://www.revelie.com/,revelie,0.01286208575961702,102.55137914240383,Pinch Chinese,Chinese,PRICE_LEVEL_MODERATE
ChIJO0_02_JZwokR_7PuZ38C4MU,Just Salad,"325 Hudson St, New York, NY 10013, USA",4.5,313.0,PRICE_LEVEL_MODERATE,restaurant,40.7268575,-74.0075915,https://www.justsalad.com/,just salad,0.03673961361722925,42.76260386382771,César,Contemporary,
ChIJa8NEw_JZwokRkUBcmHh8xOg,Westville Hudson,"333 Hudson St, New York, NY 10013, USA",4.5,1610.0,PRICE_LEVEL_MODERATE,american_restaurant,40.727247,-74.007539,https://westville.com/locations/westville-hudson/,westville hudson,0.015831543026003734,9.841684569739963,César,Contemporary,
ChIJ_2Qbzo1ZwokRVPBrvp-a9qk,Milady's,"160 Prince St, New York, NY 10012, USA",4.5,276.0,PRICE_LEVEL_INEXPENSIVE,restaurant,40.726019099999995,-74.00157540000001,https://www.miladysnyc.com/,miladys,0.07561796365948159,42.00382036340518,Sushi Ikumi,Japanese,
ChIJ7d_Zy41ZwokRJ8-pmekV39A,Omen Azen,"113 Thompson St, New York, NY 10012, USA",4.3,183.0,PRICE_LEVEL_EXPENSIVE,japanese_restaurant,40.7260008,-74.0019587,http://www.omen-azen.com/,omen azen,0.07608037957783922,41.069196204221605,Sushi Ikumi,Japanese,
ChIJpRNmfo9ZwokR_sBDB5PuLIk,Socarrat Paella Bar - Nolita,"284 Mulberry St, New York, NY 10012, USA",4.5,1303.0,PRICE_LEVEL_MODERATE,spanish_restaurant,40.72448000000001,-73.99504,https://socarratnyc.com/nolita/,socarrat paella bar nolita,0.038148451967032156,9.618515480329679,Torrisi,Contemporary,
ChIJfe6ZYKFZwokR_mHm7GNoAxc,La Pecora Bianca SoHo,"54 Prince St, New York, NY 10012, USA",4.8,5708.0,PRICE_LEVEL_MODERATE,italian_restaurant,40.723459999999996,-73.9963118,https://www.lapecorabianca.com/,la pecora bianca soho,0.11862919653211917,8.813708034678807,Torrisi,Contemporary,
ChIJRcCC14VZwokRvJiDo29-IGM,Freemans,"Freeman Alley, New York, NY 10002, USA",4.4,2344.0,PRICE_LEVEL_MODERATE,american_restaurant,40.7220379,-73.9924233,http://www.freemansrestaurant.com/,freemans,0.05559861013617205,9.44401389863828,Forsythia,Italian,
ChIJPQOh8YVZwokRE2WsbZI4tOk,Café Habana,"17 Prince St, New York, NY 10012, USA",4.6,4724.0,PRICE_LEVEL_MODERATE,cuban_restaurant,40.7229278,-73.9941778,http://www.cafehabana.com/,caf habana,0.14862973821448214,8.513702617855179,Forsythia,Italian,
ChIJ9RRDNShZwokRkVa5XZq-rxw,Fossetta,"198 Allen St, New York, NY 10002, USA",4.7,189.0,PRICE_LEVEL_MODERATE,restaurant,40.7223736,-73.9885396,https://www.fossetta-nyc.com/,fossetta,0.029860311702691406,141.59139688297307,Russ & Daughters Cafe,American,PRICE_LEVEL_MODERATE
ChIJZ6cVB49ZwokRtaudHruZUaQ,Blue Ribbon Sushi Izakaya,"187 Orchard St, New York, NY 10002, USA",4.4,930.0,PRICE_LEVEL_MODERATE,japanese_restaurant,40.722135,-73.988438,https://www.blueribbonsushiizakaya.com/,blue ribbon sushi izakaya,0.050616226144314415,108.79383773855686,Russ & Daughters Cafe,American,PRICE_LEVEL_MODERATE
ChIJdfD8moVZwokRO6vxjXAtoWs,Tacombi,"267 Elizabeth St, New York, NY 10012, USA",4.4,2552.0,PRICE_LEVEL_MODERATE,mexican_restaurant,40.72402290000001,-73.9938545,https://www.tacombi.com/?utm_source=google&utm_medium=gbp&utm_campaign=profile,tacombi,0.011089268225269467,9.889107317747305,The Musket Room,Contemporary,PRICE_LEVEL_VERY_EXPENSIVE
ChIJ6xvs94VZwokRnT1D2lX2OTw,Prince Street Pizza,"27 Prince St, New York, NY 10012, USA",4.4,8967.0,PRICE_LEVEL_INEXPENSIVE,pizza_restaurant,40.7230777,-73.9945444,https://locations.princestreetpizza.com/new-york,prince street pizza,0.11230277769918838,8.876972223008117,The Musket Room,Contemporary,PRICE_LEVEL_VERY_EXPENSIVE
ChIJe_ZBhY1ZwokRGAEwGLWYpA8,Charlie Bird,"5 King St, New York, NY 10012, USA",4.4,1083.0,PRICE_LEVEL_EXPENSIVE,italian_restaurant,40.7278191,-74.0028447,https://www.charliebirdnyc.com/,charlie bird,0.05875174398490296,109.41248256015098,King,Mediterranean Cuisine,PRICE_LEVEL_EXPENSIVE
ChIJpRNmfo9ZwokR_sBDB5PuLIk,Socarrat Paella Bar - Nolita,"284 Mulberry St, New York, NY 10012, USA",4.5,1303.0,PRICE_LEVEL_MODERATE,spanish_restaurant,40.72448000000001,-73.99504,https://socarratnyc.com/nolita/,socarrat paella bar nolita,0.03106576362062748,9.689342363793726,Estela,Contemporary,PRICE_LEVEL_EXPENSIVE
ChIJdfD8moVZwokRO6vxjXAtoWs,Tacombi,"267 Elizabeth St, New York, NY 10012, USA",4.4,2552.0,PRICE_LEVEL_MODERATE,mexican_restaurant,40.72402290000001,-73.9938545,https://www.tacombi.com/?utm_source=google&utm_medium=gbp&utm_campaign=profile,tacombi,0.10141037771612302,8.98589622283877,Estela,Contemporary,PRICE_LEVEL_EXPENSIVE
ChIJVVXqDrCkj4ARLM2HcoPKxmY,Roma,"820 Santa Cruz Ave, Menlo Park, CA 94025, USA",4.1,291.0,PRICE_LEVEL_MODERATE,restaurant,37.4508844,-122.18550269999999,https://romamenlopark.com/?utm_source=google,roma,0.055311271902648555,42.35688728097351,New,Korean Contemporary,
ChIJo4971K-kj4AReyDUlK6mSI0,Left Bank Menlo Park,"635 Santa Cruz Ave, Menlo Park, CA 94025, USA",4.2,1205.0,PRICE_LEVEL_EXPENSIVE,french_restaurant,37.452656,-122.18331719999999,https://www.leftbank.com/,left bank menlo park,0.2903658666836551,7.0963413331634495,New,Korean Contemporary,
ChIJWYmkYQm5woARzLqtLqK3CdQ,ORGANICO,"701 N Western Ave, Los Angeles, CA 90029, USA",4.5,454.0,PRICE_LEVEL_MODERATE,restaurant,34.0836581,-118.3093237,https://www.organico.co/,organico,0.08071348009183044,43.732865199081694,New,Korean Contemporary,
ChIJg7cNIYyAhYAR8D4ml1oItTg,Roxanne Cafe,"570 Powell St, San Francisco, CA 94108, USA",4.3,2009.0,PRICE_LEVEL_MODERATE,american_restaurant,37.790136499999996,-122.40865090000001,http://www.roxannecafesf.com/,roxanne cafe,0.04025614858853883,9.597438514114613,New,Korean Contemporary,
ChIJ8SMqIoyAhYAR3YqQwKhcMpA,Last Drop Tavern,"550 Powell St, San Francisco, CA 94108, USA",4.4,1115.0,PRICE_LEVEL_MODERATE,bar_and_grill,37.7899597,-122.4085332,https://www.lastdroptavernsf.com/,last drop tavern,0.05815885969896331,9.418411403010367,New,Korean Contemporary,
ChIJU-2VyAt0hlQRMAps_9W7OcU,Bon Cafe,"4909 Main St, Vancouver, BC V5W 2R2, Canada",4.3,415.0,PRICE_LEVEL_INEXPENSIVE,restaurant,49.240361799999995,-123.10174269999997,https://boncafe.zomi.menu/,bon cafe,0.25502509122925254,41.59974908770747,New,Korean Contemporary,
ChIJlylRQ3BxhlQR-1S-RYB_r6M,Chaise,"4444 Main St, Vancouver, BC V5V 3R2, Canada",4.1,747.0,PRICE_LEVEL_MODERATE,restaurant,49.245166499999996,-123.1010017,http://www.chaiseonmain.com/,chaise,0.6420555661631441,41.04944433836856,New,Korean Contemporary,
ChIJVVXqDrCkj4ARLM2HcoPKxmY,Roma,"820 Santa Cruz Ave, Menlo Park, CA 94025, USA",4.1,291.0,PRICE_LEVEL_MODERATE,restaurant,37.4508844,-122.18550269999999,https://romamenlopark.com/?utm_source=google,roma,0.055311271902648555,42.35688728097351,New,Asian Contemporary,
ChIJo4971K-kj4AReyDUlK6mSI0,Left Bank Menlo Park,"635 Santa Cruz Ave, Menlo Park, CA 94025, USA",4.2,1205.0,PRICE_LEVEL_EXPENSIVE,french_restaurant,37.452656,-122.18331719999999,https://www.leftbank.com/,left bank menlo park,0.2903658666836551,7.0963413331634495,New,Asian Contemporary,
ChIJWYmkYQm5woARzLqtLqK3CdQ,ORGANICO,"701 N Western Ave, Los Angeles, CA 90029, USA",4.5,454.0,PRICE_LEVEL_MODERATE,restaurant,34.0836581,-118.3093237,https://www.organico.co/,organico,0.08071348009183044,43.732865199081694,New,Asian Contemporary,
ChIJg7cNIYyAhYAR8D4ml1oItTg,Roxanne Cafe,"570 Powell St, San Francisco, CA 94108, USA",4.3,2009.0,PRICE_LEVEL_MODERATE,american_restaurant,37.790136499999996,-122.40865090000001,http://www.roxannecafesf.com/,roxanne cafe,0.04025614858853883,9.597438514114613,New,Asian Contemporary,
ChIJ8SMqIoyAhYAR3YqQwKhcMpA,Last Drop Tavern,"550 Powell St, San Francisco, CA 94108, USA",4.4,1115.0,PRICE_LEVEL_MODERATE,bar_and_grill,37.7899597,-122.4085332,https://www.lastdroptavernsf.com/,last drop tavern,0.05815885969896331,9.418411403010367,New,Asian Contemporary,
ChIJU-2VyAt0hlQRMAps_9W7OcU,Bon Cafe,"4909 Main St, Vancouver, BC V5W 2R2, Canada",4.3,415.0,PRICE_LEVEL_INEXPENSIVE,restaurant,49.240361799999995,-123.10174269999997,https://boncafe.zomi.menu/,bon cafe,0.25502509122925254,41.59974908770747,New,Asian Contemporary,
ChIJlylRQ3BxhlQR-1S-RYB_r6M,Chaise,"4444 Main St, Vancouver, BC V5V 3R2, Canada",4.1,747.0,PRICE_LEVEL_MODERATE,restaurant,49.245166499999996,-123.1010017,http://www.chaiseonmain.com/,chaise,0.6420555661631441,41.04944433836856,New,Asian Contemporary,
ChIJVVXqDrCkj4ARLM2HcoPKxmY,Roma,"820 Santa Cruz Ave, Menlo Park, CA 94025, USA",4.1,291.0,PRICE_LEVEL_MODERATE,restaurant,37.4508844,-122.18550269999999,https://romamenlopark.com/?utm_source=google,roma,0.055311271902648555,42.35688728097351,New,Filipino,
ChIJo4971K-kj4AReyDUlK6mSI0,Left Bank Menlo Park,"635 Santa Cruz Ave, Menlo Park, CA 94025, USA",4.2,1205.0,PRICE_LEVEL_EXPENSIVE,french_restaurant,37.452656,-122.18331719999999,https://www.leftbank.com/,left bank menlo park,0.2903658666836551,7.0963413331634495,New,Filipino,
ChIJWYmkYQm5woARzLqtLqK3CdQ,ORGANICO,"701 N Western Ave, Los Angeles, CA 90029, USA",4.5,454.0,PRICE_LEVEL_MODERATE,restaurant,34.0836581,-118.3093237,https://www.organico.co/,organico,0.08071348009183044,43.732865199081694,New,Filipino,
ChIJg7cNIYyAhYAR8D4ml1oItTg,Roxanne Cafe,"570 Powell St, San Francisco, CA 94108, USA",4.3,2009.0,PRICE_LEVEL_MODERATE,american_restaurant,37.790136499999996,-122.40865090000001,http://www.roxannecafesf.com/,roxanne cafe,0.04025614858853883,9.597438514114613,New,Filipino,
ChIJ8SMqIoyAhYAR3YqQwKhcMpA,Last Drop Tavern,"550 Powell St, San Francisco, CA 94108, USA",4.4,1115.0,PRICE_LEVEL_MODERATE,bar_and_grill,37.7899597,-122.4085332,https://www.lastdroptavernsf.com/,last drop tavern,0.05815885969896331,9.418411403010367,New,Filipino,
ChIJU-2VyAt0hlQRMAps_9W7OcU,Bon Cafe,"4909 Main St, Vancouver, BC V5W 2R2, Canada",4.3,415.0,PRICE_LEVEL_INEXPENSIVE,restaurant,49.240361799999995,-123.10174269999997,https://boncafe.zomi.menu/,bon cafe,0.25502509122925254,41.59974908770747,New,Filipino,
ChIJlylRQ3BxhlQR-1S-RYB_r6M,Chaise,"4444 Main St, Vancouver, BC V5V 3R2, Canada",4.1,747.0,PRICE_LEVEL_MODERATE,restaurant,49.245166499999996,-123.1010017,http://www.chaiseonmain.com/,chaise,0.6420555661631441,41.04944433836856,New,Filipino,
ChIJVVXqDrCkj4ARLM2HcoPKxmY,Roma,"820 Santa Cruz Ave, Menlo Park, CA 94025, USA",4.1,291.0,PRICE_LEVEL_MODERATE,restaurant,37.4508844,-122.18550269999999,https://romamenlopark.com/?utm_source=google,roma,0.055311271902648555,42.35688728097351,New,Californian,
ChIJo4971K-kj4AReyDUlK6mSI0,Left Bank Menlo Park,"635 Santa Cruz Ave, Menlo Park, CA 94025, USA",4.2,1205.0,PRICE_LEVEL_EXPENSIVE,french_restaurant,37.452656,-122.18331719999999,https://www.leftbank.com/,left bank menlo park,0.2903658666836551,7.0963413331634495,New,Californian,
ChIJWYmkYQm5woARzLqtLqK3CdQ,ORGANICO,"701 N Western Ave, Los Angeles, CA 90029, USA",4.5,454.0,PRICE_LEVEL_MODERATE,restaurant,34.0836581,-118.3093237,https://www.organico.co/,organico,0.08071348009183044,43.732865199081694,New,Californian,
ChIJg7cNIYyAhYAR8D4ml1oItTg,Roxanne Cafe,"570 Powell St, San Francisco, CA 94108, USA",4.3,2009.0,PRICE_LEVEL_MODERATE,american_restaurant,37.790136499999996,-122.40865090000001,http://www.roxannecafesf.com/,roxanne cafe,0.04025614858853883,9.597438514114613,New,Californian,
ChIJ8SMqIoyAhYAR3YqQwKhcMpA,Last Drop Tavern,"550 Powell St, San Francisco, CA 94108, USA",4.4,1115.0,PRICE_LEVEL_MODERATE,bar_and_grill,37.7899597,-122.4085332,https://www.lastdroptavernsf.com/,last drop tavern,0.05815885969896331,9.418411403010367,New,Californian,
ChIJU-2VyAt0hlQRMAps_9W7OcU,Bon Cafe,"4909 Main St, Vancouver, BC V5W 2R2, Canada",4.3,415.0,PRICE_LEVEL_INEXPENSIVE,restaurant,49.240361799999995,-123.10174269999997,https://boncafe.zomi.menu/,bon cafe,0.25502509122925254,41.59974908770747,New,Californian,
ChIJlylRQ3BxhlQR-1S-RYB_r6M,Chaise,"4444 Main St, Vancouver, BC V5V 3R2, Canada",4.1,747.0,PRICE_LEVEL_MODERATE,restaurant,49.245166499999996,-123.1010017,http://www.chaiseonmain.com/,chaise,0.6420555661631441,41.04944433836856,New,Californian,
ChIJpRNmfo9ZwokR_sBDB5PuLIk,Socarrat Paella Bar - Nolita,"284 Mulberry St, New York, NY 10012, USA",4.5,1303.0,PRICE_LEVEL_MODERATE,spanish_restaurant,40.72448000000001,-73.99504,https://socarratnyc.com/nolita/,socarrat paella bar nolita,0.04590477519944237,9.540952248005576,Ballato,Italian-American,PRICE_LEVEL_EXPENSIVE
ChIJdfD8moVZwokRO6vxjXAtoWs,Tacombi,"267 Elizabeth St, New York, NY 10012, USA",4.4,2552.0,PRICE_LEVEL_MODERATE,mexican_restaurant,40.72402290000001,-73.9938545,https://www.tacombi.com/?utm_source=google&utm_medium=gbp&utm_campaign=profile,tacombi,0.08040968526171252,9.195903147382875,Ballato,Italian-American,PRICE_LEVEL_EXPENSIVE
ChIJ_____4BZwokRwuOBV5usHR4,Shopsin's,"88 Essex St, New York, NY 10002, USA",4.2,400.0,PRICE_LEVEL_INEXPENSIVE,american_restaurant,40.71819620000001,-73.9880857,http://www.shopsins.com/,shopsins,0.009560253196320898,3.904397468036791,Dhamaka,Indian,PRICE_LEVEL_EXPENSIVE
ChIJm9uu_FpZwokR875MVLu2loI,Don Ceviche (Market),"88 Essex St Stall 11, New York, NY 10002, USA",4.4,285.0,PRICE_LEVEL_MODERATE,peruvian_restaurant,40.7182408,-73.988107,http://doncevicheny.com/,don ceviche market,0.009845658547173472,2.7515434145282653,Dhamaka,Indian,PRICE_LEVEL_EXPENSIVE
ChIJn8fJ_YRZwokRYiSB8y4Qneg,Bowery Meat Company,"9 E 1st St, New York, NY 10003, USA",4.5,1274.0,PRICE_LEVEL_EXPENSIVE,restaurant,40.7245665,-73.9918409,http://www.bowerymeatcompany.com/,bowery meat company,0.10997740220547207,48.90022597794528,Raf's,European,
ChIJAxShVB5awokR3VwM2axhvjY,Duane Park,"308 Bowery, New York, NY 10012, USA",4.7,745.0,PRICE_LEVEL_EXPENSIVE,restaurant,40.7249254,-73.9927056,https://www.duaneparknyc.com/,duane park,0.045355540141024935,46.996444598589754,Raf's,European,
ChIJdfD8moVZwokRO6vxjXAtoWs,Tacombi,"267 Elizabeth St, New York, NY 10012, USA",4.4,2552.0,PRICE_LEVEL_MODERATE,mexican_restaurant,40.72402290000001,-73.9938545,https://www.tacombi.com/?utm_source=google&utm_medium=gbp&utm_campaign=profile,tacombi,0.10092452019089715,108.99075479809103,Torien,Japanese,PRICE_LEVEL_MODERATE
ChIJgc7fPIVZwokRQMnqTxTf_Qk,Fish Cheeks,"55 Bond St, New York, NY 10012, USA",4.7,5131.0,PRICE_LEVEL_MODERATE,thai_restaurant,40.725788099999995,-73.99263859999999,https://www.fishcheeksnyc.com/,fish cheeks,0.12320567635543901,108.7679432364456,Torien,Japanese,PRICE_LEVEL_MODERATE
ChIJyQXfAI5ZwokRmcMV_qjG7SI,The Clam Bar,"169 Thompson St, New York, NY 10012, USA",4.5,91.0,PRICE_LEVEL_VERY_EXPENSIVE,fine_dining_restaurant,40.727685099999995,-74.00048509999999,,the clam bar,0.039552074758368326,100.51447925241631,Carbone,Italian,PRICE_LEVEL_VERY_EXPENSIVE
ChIJ4WXDA45ZwokRiYUKlIucxxU,Tomo21 Sushi,"172 Thompson St, New York, NY 10012, USA",4.5,1192.0,PRICE_LEVEL_MODERATE,sushi_restaurant,40.7276662,-74.0001319,https://order.mealkeyway.com/merchant/65544c45446839717849786b32324243744b4f4437513d3d/main,tomo21 sushi,0.049397557839599746,9.506024421604003,Lord's,English,
ChIJcWrDA45ZwokRZnC4PCcrgPI,Lupa,"170 Thompson St, New York, NY 10012, USA",4.3,1259.0,PRICE_LEVEL_EXPENSIVE,italian_restaurant,40.7276467,-74.0002058,http://www.luparestaurant.com/,lupa,0.05591003640157653,9.440899635984234,Lord's,English,
ChIJRehJ9oNZwokRY65T0IFkTu0,Cheese Grille,"188 Allen St, New York, NY 10002, USA",4.4,556.0,PRICE_LEVEL_MODERATE,restaurant,40.7219115,-73.9886709,http://www.cheesegrille.com/,cheese grille,0.028800520906685393,45.27199479093315,8282,Korean,
ChIJ_-GxG8ZZwokREwIGt-UEmG8,Peppa’s,"96 Stanton St, New York, NY 10002, USA",3.9,191.0,PRICE_LEVEL_MODERATE,restaurant,40.721435199999995,-73.9881389,,peppas,0.05990365111982859,41.31096348880171,8282,Korean,
ChIJZ9_Q8pJZwokRNgf0n3Ledmw,Sveta,"64 Carmine St, New York, NY 10014, USA",4.3,1242.0,PRICE_LEVEL_MODERATE,restaurant,40.7296987,-74.00412279999999,http://sveta-nyc.com/,sveta,0.07453157180801287,149.25468428191988,Laliko,Central Asian,PRICE_LEVEL_MODERATE
ChIJqYfcXz5ZwokRBU0xHJdmJBk,Judy Z’s Sports Tavern & Kitchen,"1 7th Ave S, New York, NY 10014, USA",4.5,209.0,PRICE_LEVEL_MODERATE,restaurant,40.7296988,-74.0048157,https://www.judyznyc.com/,judy zs sports tavern kitchen,0.02976902050341211,141.7923097949659,Laliko,Central Asian,PRICE_LEVEL_MODERATE
ChIJW0eidCpawokR5A505xH06l8,Saluggi's East,"399 Grand St, New York, NY 10002, USA",4.4,1068.0,PRICE_LEVEL_MODERATE,restaurant,40.715899,-73.98733299999999,https://east.saluggis.com/,saluggis east,0.24128481939493016,47.5871518060507,Ernesto's,Spanish,
ChIJOQXR4U1bwokRfhkCnTG8Obo,Manousheh Grand,"403 Grand St, New York, NY 10002, USA",4.6,535.0,PRICE_LEVEL_INEXPENSIVE,lebanese_restaurant,40.715841399999995,-73.98735599999999,https://www.manousheh.com/,manousheh grand,0.23783772094233827,2.971622790576617,Ernesto's,Spanish,
ChIJUw68EZJZwokRE9JElRWVp6c,Mermaid Oyster Bar,"89 MacDougal St, New York, NY 10012, USA",4.6,1199.0,PRICE_LEVEL_MODERATE,oyster_bar_restaurant,40.7290436,-74.001539,http://www.themermaidnyc.com/,mermaid oyster bar,0.011220587265220176,9.887794127347798,Dame,Seafood,
ChIJUw68EZJZwokRJ15RD_T4OTw,Dante NYC,"79-81 MacDougal St, New York, NY 10012, USA",4.5,2713.0,PRICE_LEVEL_EXPENSIVE,italian_restaurant,40.7288417,-74.0016444,http://www.dante-nyc.com/,dante nyc,0.01641958358518378,9.835804164148163,Dame,Seafood,
ChIJgc7fPIVZwokRQMnqTxTf_Qk,Fish Cheeks,"55 Bond St, New York, NY 10012, USA",4.7,5131.0,PRICE_LEVEL_MODERATE,thai_restaurant,40.725788099999995,-73.99263859999999,https://www.fishcheeksnyc.com/,fish cheeks,0.03204722515026707,109.67952774849734,C as in Charlie,Fusion,PRICE_LEVEL_MODERATE
ChIJi6b8KIVZwokR0jaGWCEGugw,The Wren,"344 Bowery, New York, NY 10012, USA",4.3,1117.0,PRICE_LEVEL_MODERATE,bar,40.726329,-73.99220559999999,http://www.thewrennyc.com/,the wren,0.10082602567451081,108.9917397432549,C as in Charlie,Fusion,PRICE_LEVEL_MODERATE
ChIJkdevwDdawokR0j_3ECiQ8rE,Vineapple,"71 Pineapple St, Brooklyn, NY 11201, USA",4.5,918.0,PRICE_LEVEL_MODERATE,restaurant,40.698374199999996,-73.993038,https://www.vineapplebk.com/,vineapple,0.19508145000055147,147.2291854999945,Inga's Bar,American,PRICE_LEVEL_MODERATE
ChIJ3wxUrjdawokRCvceYKTpXFU,Henry Street Ale House,"62 Henry St, Brooklyn, NY 11201, USA",4.3,721.0,PRICE_LEVEL_MODERATE,restaurant,40.699094,-73.9924662,http://henrystreetalehouse.com/,henry street ale house,0.15199440754135496,145.69005592458646,Inga's Bar,American,PRICE_LEVEL_MODERATE
ChIJRehJ9oNZwokRY65T0IFkTu0,Cheese Grille,"188 Allen St, New York, NY 10002, USA",4.4,556.0,PRICE_LEVEL_MODERATE,restaurant,40.7219115,-73.9886709,http://www.cheesegrille.com/,cheese grille,0.01764640755798877,145.3835359244201,Una Pizza Napoletana,Pizza,PRICE_LEVEL_MODERATE
ChIJ_-GxG8ZZwokREwIGt-UEmG8,Peppa’s,"96 Stanton St, New York, NY 10002, USA",3.9,191.0,PRICE_LEVEL_MODERATE,restaurant,40.721435199999995,-73.9881389,,peppas,0.054186412392547394,141.36813587607452,Una Pizza Napoletana,Pizza,PRICE_LEVEL_MODERATE
ChIJn8fJ_YRZwokRYiSB8y4Qneg,Bowery Meat Company,"9 E 1st St, New York, NY 10003, USA",4.5,1274.0,PRICE_LEVEL_EXPENSIVE,restaurant,40.7245665,-73.9918409,http://www.bowerymeatcompany.com/,bowery meat company,0.045945694417739616,49.5405430558226,Kabawa,Caribbean,
ChIJAxShVB5awokR3VwM2axhvjY,Duane Park,"308 Bowery, New York, NY 10012, USA",4.7,745.0,PRICE_LEVEL_EXPENSIVE,restaurant,40.7249254,-73.9927056,https://www.duaneparknyc.com/,duane park,0.10444256620087546,46.40557433799125,Kabawa,Caribbean,
ChIJudU7pcNZwokRS2WCT8UDxtY,Luke's Lobster,"228 Bleecker St, New York, NY 10014, USA",4.7,142.0,PRICE_LEVEL_MODERATE,seafood_restaurant,40.7301029,-74.0024352,https://lukeslobster.com/pages/west-village,lukes lobster,0.055849171173764,40.861508288262364,Crevette,Seafood,
ChIJt_loX5JZwokRZkK8Zu2O_X4,Jack's Wife Freda,"50 Carmine St, New York, NY 10014, USA",4.4,2126.0,PRICE_LEVEL_MODERATE,mediterranean_restaurant,40.729816799999995,-74.00351599999999,https://jackswifefreda.com/,jacks wife freda,0.07450188499351378,9.254981150064863,Crevette,Seafood,
ChIJXcohm1dZwokR-w-Sv7cYZl8,Son del North,"177 Orchard St, New York, NY 10002, USA",4.3,501.0,PRICE_LEVEL_INEXPENSIVE,burrito_restaurant,40.721809799999996,-73.9885376,https://sondelnorth.com/sondelnorth?utm_source=google,son del north,0.05519718412931159,104.4580281587069,Sami & Susu,Mediterranean Cuisine,PRICE_LEVEL_INEXPENSIVE
ChIJK2OWqJxZwokRVvZekLjy2wk,Lil' Frankie's,"19 1st Ave, New York, NY 10003, USA",4.3,2114.0,PRICE_LEVEL_MODERATE,pizza_restaurant,40.7236143,-73.9884363,http://www.lilfrankies.com/,lil frankies,0.07106850883255321,109.28931491167447,MayRee,Thai,PRICE_LEVEL_MODERATE
ChIJYzdjboRZwokR-WVAArYMQmk,Fools Gold NYC,"145 E Houston St, New York, NY 10002, USA",4.5,1188.0,PRICE_LEVEL_MODERATE,cocktail_bar,40.723055699999996,-73.9897835,http://www.foolsgoldnyc.com/,fools gold nyc,0.09937065482541454,109.00629345174586,MayRee,Thai,PRICE_LEVEL_MODERATE
ChIJ2fLg9KdZwokR0cET1EjEuwk,Rocco's Sports & Rec,"1 W 3rd St, New York, NY 10012, USA",3.9,170.0,PRICE_LEVEL_MODERATE,restaurant,40.7280045,-73.9950017,https://www.gotoroccos.com/,roccos sports rec,0.12347218512244847,140.4652781487755,Atla,Mexican,PRICE_LEVEL_MODERATE
ChIJIUM_NYVZwokRFOQZXDCXMSE,Vic's,"31 Great Jones St, New York, NY 10012, USA",4.6,1202.0,PRICE_LEVEL_MODERATE,italian_restaurant,40.726864299999995,-73.9932413,http://vicsnewyork.com/,vics,0.07276934064355932,109.27230659356441,Atla,Mexican,PRICE_LEVEL_MODERATE
ChIJO_Nbh4lZwokR1-EspAqsGLM,Bandits Burger + Dive,"44 Bedford St, New York, NY 10014, USA",4.3,327.0,PRICE_LEVEL_MODERATE,restaurant,40.730422999999995,-74.0041104,https://www.banditsnyc.com/,bandits burger dive,0.07399433515982488,42.530056648401754,Nami Nori,Japanese,
ChIJpZm095JZwokRGez02CCWhpE,Berimbau Brazilian Table - West Village,"43 Carmine St, New York, NY 10014, USA",4.6,1461.0,PRICE_LEVEL_MODERATE,brazilian_restaurant,40.7301198,-74.0036057,https://www.berimbaunyc.com/,berimbau brazilian table west village,0.035558937968597354,9.644410620314027,Nami Nori,Japanese,
ChIJA294T_hZwokRZ9fZHqJ0cPk,Twig'm,"348 Bowery, New York, NY 10012, USA",4.8,73.0,PRICE_LEVEL_MODERATE,restaurant,40.7266502,-73.9920024,http://twigm.square.site/,twigm,0.04878010427949596,40.24219895720504,Yoshino,Japanese,
ChIJi6b8KIVZwokR0jaGWCEGugw,The Wren,"344 Bowery, New York, NY 10012, USA",4.3,1117.0,PRICE_LEVEL_MODERATE,bar,40.726329,-73.99220559999999,http://www.thewrennyc.com/,the wren,0.011742504372201815,9.882574956277981,Yoshino,Japanese,
ChIJ10EpKJJZwokRUjIWaunOQbI,Artichoke Basille's Pizza,"111 MacDougal St, New York, NY 10012, USA",4.4,2042.0,PRICE_LEVEL_MODERATE,pizza_restaurant,40.73,-74.00072779999999,https://www.artichokepizza.com/,artichoke basilles pizza,0.0025738639770740935,9.974261360229258,Minetta Tavern,Steakhouse,PRICE_LEVEL_EXPENSIVE
ChIJjz4VKJJZwokROQSktDtYo9k,Off the Wagon,"109 MacDougal St, New York, NY 10012, USA",4.2,1770.0,PRICE_LEVEL_MODERATE,sports_bar,40.729923899999996,-74.0007935,https://www.offthewagonnyc.com/,off the wagon,0.010532183220128569,9.894678167798714,Minetta Tavern,Steakhouse,PRICE_LEVEL_EXPENSIVE
ChIJLWBE3YNZwokRh2EBs1QXfzM,Sweet Chick,"178 Ludlow St, New York, NY 10002, USA",4.3,2097.0,PRICE_LEVEL_MODERATE,chicken_restaurant,40.721700899999995,-73.9872776,http://www.sweetchick.com/,sweet chick,0.06052687463808247,109.39473125361917,Katz's,Deli,PRICE_LEVEL_MODERATE
ChIJ01Bg4shZwokRdYhhALtulFc,Gazab,"179 Essex St, New York, NY 10002, USA",4.5,1239.0,PRICE_LEVEL_MODERATE,indian_restaurant,40.7219227,-73.9866681,https://gazabnyc.com/?utm_source=google,gazab,0.07281680624111535,109.27183193758884,Katz's,Deli,PRICE_LEVEL_MODERATE
ChIJK2OWqJxZwokRVvZekLjy2wk,Lil' Frankie's,"19 1st Ave, New York, NY 10003, USA",4.3,2114.0,PRICE_LEVEL_MODERATE,pizza_restaurant,40.7236143,-73.9884363,http://www.lilfrankies.com/,lil frankies,0.03937994132326647,9.606200586767335,Bungalow,Indian,
ChIJk-Ctm4NZwokRpuORmfL1xKk,Cafe Himalaya,"78 E 1st St, New York, NY 10009, USA",4.7,926.0,PRICE_LEVEL_INEXPENSIVE,tibetan_restaurant,40.7231862,-73.9880101,http://cafehimalaya.weebly.com/,cafe himalaya,0.05360308460784471,8.723969153921553,Bungalow,Indian,
ChIJGarru4FZwokRhCrFKKyvH5s,Cibao,"72 Clinton St, New York, NY 10002, USA",4.2,577.0,PRICE_LEVEL_INEXPENSIVE,restaurant,40.7191785,-73.98481199999999,http://cibaorestaurant.com/,cibao,0.045556834296891904,45.31443165703108,63 Clinton,Contemporary,
ChIJSWsAjQlZwokRVLOHE_VU724,Rebel,"29 Clinton St, New York, NY 10002, USA",4.4,422.0,PRICE_LEVEL_MODERATE,restaurant,40.7203599,-73.984541,https://rebelrestaurantandbarnyc.com/?utm_source=google,rebel,0.10790836151441204,43.14091638485588,63 Clinton,Contemporary,
ChIJHWNcKe1ZwokRzBgOs-cjQSU,Hudson Clearwater,"447 Hudson St, New York, NY 10014, USA",4.4,1197.0,PRICE_LEVEL_MODERATE,american_restaurant,40.7311111,-74.0069444,http://www.hudsonclearwater.com/,hudson clearwater,0.10780673089599152,48.921932691040084,The Commerce Inn,American,
ChIJTX6hP5NZwokR93muGu7l4X0,Little Owl,"90 Bedford St, New York, NY 10014, USA",4.5,1407.0,PRICE_LEVEL_EXPENSIVE,american_restaurant,40.732375399999995,-74.0052681,https://www.thelittleowlnyc.com/,little owl,0.11943109906654055,48.80568900933459,The Commerce Inn,American,
ChIJ39BEdZNZwokRwjlY27mF_V8,Caliente Cab Co.,"61 7th Ave S, New York, NY 10014, USA",4.6,4874.0,PRICE_LEVEL_MODERATE,mexican_restaurant,40.7318772,-74.0035615,http://www.calientecabco.com/,caliente cab co,0.08362297997968968,9.163770200203103,Sushi Nakazawa New York,Japanese,PRICE_LEVEL_VERY_EXPENSIVE
ChIJTX6hP5NZwokR93muGu7l4X0,Little Owl,"90 Bedford St, New York, NY 10014, USA",4.5,1407.0,PRICE_LEVEL_EXPENSIVE,american_restaurant,40.732375399999995,-74.0052681,https://www.thelittleowlnyc.com/,little owl,0.0877308721971758,9.122691278028242,Sushi Nakazawa New York,Japanese,PRICE_LEVEL_VERY_EXPENSIVE
ChIJSWsAjQlZwokRVLOHE_VU724,Rebel,"29 Clinton St, New York, NY 10002, USA",4.4,422.0,PRICE_LEVEL_MODERATE,restaurant,40.7203599,-73.984541,https://rebelrestaurantandbarnyc.com/?utm_source=google,rebel,0.02474160665706322,143.97258393342938,Ivan Ramen,Japanese,PRICE_LEVEL_MODERATE
ChIJrXLBQ8hZwokRQoXlUVYmwZ4,Toriya,"178 Stanton St, New York, NY 10002, USA",4.6,216.0,PRICE_LEVEL_MODERATE,japanese_restaurant,40.720171,-73.9839775,http://www.toriyanyc.com/,toriya,0.06470758964990343,141.51292410350095,Ivan Ramen,Japanese,PRICE_LEVEL_MODERATE
ChIJw_xat5NZwokRpW-BtDpdsPs,Palma,"28 Cornelia St, New York, NY 10014, USA",4.6,1157.0,PRICE_LEVEL_EXPENSIVE,italian_restaurant,40.7312011,-74.0023412,https://www.palmanyc.com/,palma,0.03893284925565843,109.61067150744341,Le Gigot,French,PRICE_LEVEL_EXPENSIVE
ChIJH-VtMYJZwokRIVHfp50qwYc,Remedy Diner,"245 E Houston St, New York, NY 10002, USA",3.9,2831.0,PRICE_LEVEL_MODERATE,diner,40.7216667,-73.9855556,https://remedydinerny.com/?utm_source=google,remedy diner,0.14687588050408407,108.53124119495916,Little Myanmar,Burmese,PRICE_LEVEL_MODERATE
ChIJKzk6b4JZwokRJFfnxFnxV4Q,Il Posto Accanto,"190 E 2nd St, New York, NY 10009, USA",4.6,592.0,PRICE_LEVEL_MODERATE,italian_restaurant,40.7224092,-73.9840517,http://ilpostoaccantonyc.com/,il posto accanto,0.13938536193523587,104.52614638064765,Little Myanmar,Burmese,PRICE_LEVEL_MODERATE
ChIJ0cr5SZFZwokRqThsmC5Caes,Babbo,"110 Waverly Pl, New York, NY 10011, USA",4.3,1781.0,PRICE_LEVEL_VERY_EXPENSIVE,restaurant,40.732296,-73.9992785,https://babbonyc.com/?utm_source=GoogleBusinessProfile&utm_medium=Website&utm_campaign=MapLabs,babbo,0.04300642043842416,149.56993579561575,Family Meal at Blue Hill,American,PRICE_LEVEL_VERY_EXPENSIVE
ChIJ4zP6YOtZwokRqTzjf2iPmfI,Casa La Femme,"140 Charles St, New York, NY 10014, USA",3.8,1924.0,PRICE_LEVEL_MODERATE,restaurant,40.733945399999996,-74.0081223,http://www.casalafemmeny.com/,casa la femme,0.1250518899292311,148.7494811007077,Jeju Noodle Bar,Korean,PRICE_LEVEL_MODERATE
ChIJ75tik-xZwokRq4QSrdKjblg,Malatesta Trattoria,"649 Washington St, New York, NY 10014, USA",4.4,1118.0,PRICE_LEVEL_MODERATE,italian_restaurant,40.7328622,-74.008394,http://malatestanyc.com/,malatesta trattoria,0.08977805497061125,109.10221945029389,Jeju Noodle Bar,Korean,PRICE_LEVEL_MODERATE
ChIJEwHZcZNZwokR810IgyQhoZM,Buvette,"42 Grove St, New York, NY 10014, USA",4.4,4264.0,PRICE_LEVEL_EXPENSIVE,french_restaurant,40.732625899999995,-74.00432839999999,http://www.ilovebuvette.com/,buvette,0.029458652903915302,109.70541347096085,I Sodi,Italian,PRICE_LEVEL_EXPENSIVE
ChIJjZlBgJNZwokRVeIhxDdROqw,Arthur's Tavern,"57 Grove St, New York, NY 10014, USA",4.3,1018.0,PRICE_LEVEL_EXPENSIVE,bar,40.7332013,-74.0034518,https://arthurstavern.nyc/,arthurs tavern,0.0683121701809715,109.31687829819029,I Sodi,Italian,PRICE_LEVEL_EXPENSIVE
ChIJLztrVJNZwokRTmcQJheGNR4,Employees Only,"510 Hudson St, New York, NY 10014, USA",4.2,3123.0,PRICE_LEVEL_EXPENSIVE,bar,40.733434599999995,-74.0061109,http://www.employeesonlynyc.com/,employees only,0.057784304861060974,9.42215695138939,Red Paper Clip,Contemporary,
ChIJTX6hP5NZwokR93muGu7l4X0,Little Owl,"90 Bedford St, New York, NY 10014, USA",4.5,1407.0,PRICE_LEVEL_EXPENSIVE,american_restaurant,40.732375399999995,-74.0052681,https://www.thelittleowlnyc.com/,little owl,0.08307976180938982,9.169202381906102,Red Paper Clip,Contemporary,
ChIJjZlBgJNZwokRVeIhxDdROqw,Arthur's Tavern,"57 Grove St, New York, NY 10014, USA",4.3,1018.0,PRICE_LEVEL_EXPENSIVE,bar,40.7332013,-74.0034518,https://arthurstavern.nyc/,arthurs tavern,0.01666033586242997,109.8333966413757,Via Carota,Italian,PRICE_LEVEL_EXPENSIVE
ChIJq58thpNZwokRcsvqjnNzYcc,Boucherie West Village,"99 7th Ave S, New York, NY 10014, USA",4.8,9234.0,PRICE_LEVEL_EXPENSIVE,french_restaurant,40.733047,-74.0028772,https://www.boucherieus.com/west-village-menus/,boucherie west village,0.0671381854256764,109.32861814574323,Via Carota,Italian,PRICE_LEVEL_EXPENSIVE
ChIJtb-sGG1ZwokR6gBkLejDI9k,Stoned Pizza,"235 E 4th St, New York, NY 10009, USA",4.5,1009.0,PRICE_LEVEL_INEXPENSIVE,pizza_restaurant,40.723505900000006,-73.98267589999999,https://thepizzapusha.com/,stoned pizza,0.08245206869687671,9.175479313031232,Secchu Yokota,Japanese,
ChIJF9qFgYJZwokR9a5fyk309_0,Gnoccheria East Village,"234 E 4th St, New York, NY 10009, USA",4.5,910.0,PRICE_LEVEL_MODERATE,italian_restaurant,40.7233893,-73.9830338,https://www.gnoccherianyc.com/,gnoccheria east village,0.0608439297039846,8.491560702960154,Secchu Yokota,Japanese,
ChIJ-_X-VXRZwokRANlJBY9g0Xo,Classic Arepas,"31 W 8th St, New York, NY 10011, USA",4.6,411.0,PRICE_LEVEL_MODERATE,restaurant,40.7330727,-73.99790829999999,https://www.classic-arepas.com/,classic arepas,0.03174911696766602,43.79250883032334,Loring Place,American,PRICE_LEVEL_EXPENSIVE
ChIJ4_MONJFZwokRzfxEX_oc-eg,North Square,"103 Waverly Pl, New York, NY 10011, USA",4.4,306.0,PRICE_LEVEL_MODERATE,american_restaurant,40.7323801,-73.9986529,http://www.northsquareny.com/,north square,0.10873757386653392,41.972624261334666,Loring Place,American,PRICE_LEVEL_EXPENSIVE
ChIJ0cr5SZFZwokRqThsmC5Caes,Babbo,"110 Waverly Pl, New York, NY 10011, USA",4.3,1781.0,PRICE_LEVEL_VERY_EXPENSIVE,restaurant,40.732296,-73.9992785,https://babbonyc.com/?utm_source=GoogleBusinessProfile&utm_medium=Website&utm_campaign=MapLabs,babbo,0.10571714839906522,148.94282851600934,Frevo,Contemporary,PRICE_LEVEL_VERY_EXPENSIVE
ChIJ__-7Jp1ZwokRqMtG8dflABo,Hunan Slurp,"112 1st Ave, New York, NY 10009, USA",4.2,476.0,PRICE_LEVEL_MODERATE,restaurant,40.7266937,-73.9856429,http://hunanslurp.com/,hunan slurp,0.054611359315059546,44.213886406849404,Adda,Indian,
ChIJ8eEu0JxZwokRNFpDI_HBFmc,Raku,"342 E 6th St, New York, NY 10003, USA",4.5,1396.0,PRICE_LEVEL_MODERATE,japanese_restaurant,40.726489099999995,-73.9866759,http://www.rakunyc.com/,raku,0.05482116002801369,9.451788399719863,Adda,Indian,
ChIJ_RUJvZZZwokRNUEv3K4nSik,OLIO E PIÙ,"3 Greenwich Ave, New York, NY 10014, USA",4.7,10755.0,PRICE_LEVEL_MODERATE,restaurant,40.7338208,-73.99979309999999,https://www.olioepiu.com/,olio e pi,0.06826886253171663,49.31731137468283,Shmoné,Israeli,
ChIJ-_X-VXRZwokRANlJBY9g0Xo,Classic Arepas,"31 W 8th St, New York, NY 10011, USA",4.6,411.0,PRICE_LEVEL_MODERATE,restaurant,40.7330727,-73.99790829999999,https://www.classic-arepas.com/,classic arepas,0.11126253946602391,42.99737460533976,Shmoné,Israeli,
ChIJAQCweZxZwokRmyqYmYM3Ze8,Mountain House East Village,"23 St Marks Pl, New York, NY 10003, USA",4.6,2198.0,PRICE_LEVEL_MODERATE,chinese_restaurant,40.7291176,-73.9885834,https://www.szechuanmountainhouse.com/,mountain house east village,0.013234717810714359,149.86765282189285,CheLi,Chinese,PRICE_LEVEL_MODERATE
ChIJY_AGiJtZwokRMkVfS6vDfw8,The Bao,"13 St Marks Pl, New York, NY 10003, USA",4.3,1341.0,PRICE_LEVEL_MODERATE,chinese_restaurant,40.7294074,-73.9889097,http://www.thebaony.com/,the bao,0.029680714248586468,149.70319285751413,CheLi,Chinese,PRICE_LEVEL_MODERATE
ChIJ__-7Jp1ZwokRqMtG8dflABo,Hunan Slurp,"112 1st Ave, New York, NY 10009, USA",4.2,476.0,PRICE_LEVEL_MODERATE,restaurant,40.7266937,-73.9856429,http://hunanslurp.com/,hunan slurp,0.06610526764107504,144.09894732358924,Ariari,Korean,PRICE_LEVEL_MODERATE
ChIJd3-uGZ1ZwokR2fCvxWdgWqY,The Grafton,"126 1st Ave, New York, NY 10009, USA",4.4,445.0,PRICE_LEVEL_MODERATE,irish_pub,40.7272259,-73.98527519999999,http://www.thegraftonnyc.com/,the grafton,0.0471256486103055,103.97874351389694,Ariari,Korean,PRICE_LEVEL_MODERATE
ChIJg3MwTp1ZwokRR09egp9Xo-c,Kazuza,"107 Avenue A, New York, NY 10009, USA",4.6,1703.0,PRICE_LEVEL_MODERATE,hookah_bar,40.725936999999995,-73.983789,http://www.kazuzalounge.com/,kazuza,0.03935763964743527,9.606423603525647,Soda Club,Vegan,
ChIJY_1BtoJZwokR-sB-pdEPW44,Somtum Der,"85 Avenue A, New York, NY 10009, USA",4.5,1340.0,PRICE_LEVEL_MODERATE,thai_restaurant,40.725238499999996,-73.984342,http://www.somtumdernewyork.com/,somtum der,0.051871487480266924,9.481285125197331,Soda Club,Vegan,
ChIJF9qFgYJZwokR9a5fyk309_0,Gnoccheria East Village,"234 E 4th St, New York, NY 10009, USA",4.5,910.0,PRICE_LEVEL_MODERATE,italian_restaurant,40.7233893,-73.9830338,https://www.gnoccherianyc.com/,gnoccheria east village,0.07536495423831271,108.34635045761686,Tuome,Fusion,PRICE_LEVEL_MODERATE
ChIJd44UPXhZwokRMNBKRybimqY,Horus Cafe,"93 Avenue B, New York, NY 10009, USA",4.3,714.0,PRICE_LEVEL_MODERATE,mediterranean_restaurant,40.7245,-73.9814,http://www.horuscafe.com/,horus cafe,0.13210896830384222,105.81891031696158,Tuome,Fusion,PRICE_LEVEL_MODERATE
ChIJ__-7Jp1ZwokRqMtG8dflABo,Hunan Slurp,"112 1st Ave, New York, NY 10009, USA",4.2,476.0,PRICE_LEVEL_MODERATE,restaurant,40.7266937,-73.9856429,http://hunanslurp.com/,hunan slurp,0.053542013203336195,144.22457986796664,MáLà Project,Chinese,PRICE_LEVEL_MODERATE
ChIJd3-uGZ1ZwokR2fCvxWdgWqY,The Grafton,"126 1st Ave, New York, NY 10009, USA",4.4,445.0,PRICE_LEVEL_MODERATE,irish_pub,40.7272259,-73.98527519999999,http://www.thegraftonnyc.com/,the grafton,0.015131356451490692,104.2986864354851,MáLà Project,Chinese,PRICE_LEVEL_MODERATE
ChIJ60QSkN5ZwokROElW0spks6s,Little Kirin,"81 St Marks Pl, New York, NY 10003, USA",4.7,374.0,PRICE_LEVEL_MODERATE,restaurant,40.7278725,-73.9854694,http://eatlittlekirin.com/,little kirin,0.054797525220524515,43.192024747794754,Nudibranch,Contemporary,
ChIJL5F0BJ1ZwokRGlf-5766UVM,Taqueria St. Marks Place,"79 St Marks Pl, New York, NY 10003, USA",4.6,1000.0,PRICE_LEVEL_INEXPENSIVE,mexican_restaurant,40.727891299999996,-73.9855548,http://www.facebook.com/taqueria.stmarksplace,taqueria st marks place,0.0543582800491425,9.456417199508575,Nudibranch,Contemporary,
ChIJ8dMooZZZwokR-jc4VF7m2Bs,Omakase Room by Mitsu,"| Ground Floor, 14 Christopher St Ground Floor, New York, NY 10014, USA",4.7,314.0,PRICE_LEVEL_VERY_EXPENSIVE,japanese_restaurant,40.733832,-74.000429,https://www.omakaseroom.com/,omakase room by mitsu,0.0907820667166669,42.23217933283333,Moody Tongue Sushi,Sushi,
ChIJye1nGZRZwokRpt8fmbCxNLE,Petite Boucherie,"First Floor, 14 Christopher St, New York, NY 10014, USA",4.7,2045.0,PRICE_LEVEL_MODERATE,french_restaurant,40.733870599999996,-74.0004319,https://www.boucherieus.com/,petite boucherie,0.08747395241953934,9.125260475804607,Moody Tongue Sushi,Sushi,
ChIJKU1MNJ1ZwokRQ7eiWK511vI,Death & Co East Village,"433 E 6th St, New York, NY 10009, USA",4.5,2074.0,PRICE_LEVEL_EXPENSIVE,cocktail_bar,40.725919999999995,-73.9846452,http://www.deathandcompany.com/,death co east village,0.057163887376681946,109.42836112623318,Pylos,Greek,PRICE_LEVEL_EXPENSIVE
ChIJdWfZe5FZwokR8k6hhjU5uQo,Ladybird,"111 E 7th St, New York, NY 10009, USA",4.6,938.0,PRICE_LEVEL_MODERATE,restaurant,40.726680099999996,-73.9845333,https://ladybirdny.com/?utm_source=google,ladybird,0.04601456382270159,148.919854361773,Ruffian,Contemporary,PRICE_LEVEL_MODERATE
ChIJTSV5mHNZwokR7WlyNR3YXSg,Crepe Master,"123 E 7th St, New York, NY 10009, USA",5.0,627.0,PRICE_LEVEL_MODERATE,restaurant,40.7264602,-73.9841691,http://www.crepemasternyc.com/,crepe master,0.006796491859127496,146.20203508140872,Ruffian,Contemporary,PRICE_LEVEL_MODERATE
ChIJZYCXM9FZwokRJPSwZbTCvZk,7th Street Burger East Village,"91 E 7th St, New York, NY 10009, USA",4.5,1776.0,PRICE_LEVEL_INEXPENSIVE,hamburger_restaurant,40.7269388,-73.9853368,https://locations.7thstreetburger.com/locations/ny/new-york/91-e-7th-st,7th street burger east village,0.04362096552452226,9.563790344754777,Noreetuh,Fusion,PRICE_LEVEL_EXPENSIVE
ChIJFZ6BFJ1ZwokR5gGXJF4XVug,Dumpling Man,"100 St Marks Pl #7, New York, NY 10009, USA",4.3,859.0,PRICE_LEVEL_INEXPENSIVE,dumpling_restaurant,40.727235199999996,-73.9847297,https://dumplingman.com/,dumpling man,0.048381131609658526,8.106188683903415,Noreetuh,Fusion,PRICE_LEVEL_EXPENSIVE
ChIJKU1MNJ1ZwokRQ7eiWK511vI,Death & Co East Village,"433 E 6th St, New York, NY 10009, USA",4.5,2074.0,PRICE_LEVEL_EXPENSIVE,cocktail_bar,40.725919999999995,-73.9846452,http://www.deathandcompany.com/,death co east village,0.05550422590142062,109.4449577409858,Avant Garden,Vegan,PRICE_LEVEL_EXPENSIVE
ChIJZyJMS5xZwokR6LR59bMP6s8,Hi-Collar,"231 E 9th St, New York, NY 10003, USA",4.4,1231.0,PRICE_LEVEL_MODERATE,japanese_restaurant,40.7295831,-73.9878324,http://www.hi-collar.com/,hicollar,0.00929197939736026,149.9070802060264,Sobaya,Japanese,PRICE_LEVEL_MODERATE
ChIJbxGBQJxZwokRyKepqIke4x8,Temakase Hand Roll Bar - 2nd Ave,"157 2nd Ave, New York, NY 10003, USA",4.5,1108.0,PRICE_LEVEL_MODERATE,sushi_restaurant,40.729741399999995,-73.9872113,https://temakasenyc.com/temakasehandrollbar-2ndave?utm_source=google,temakase hand roll bar 2nd ave,0.06307171006892033,149.3692828993108,Sobaya,Japanese,PRICE_LEVEL_MODERATE
ChIJTSV5mHNZwokR7WlyNR3YXSg,Crepe Master,"123 E 7th St, New York, NY 10009, USA",5.0,627.0,PRICE_LEVEL_MODERATE,restaurant,40.7264602,-73.9841691,http://www.crepemasternyc.com/,crepe master,0.052524243013087425,145.74475756986914,Miss Lily’s,Jamaican,PRICE_LEVEL_MODERATE
ChIJg3MwTp1ZwokRR09egp9Xo-c,Kazuza,"107 Avenue A, New York, NY 10009, USA",4.6,1703.0,PRICE_LEVEL_MODERATE,hookah_bar,40.725936999999995,-73.983789,http://www.kazuzalounge.com/,kazuza,0.013999168892206641,109.86000831107793,Miss Lily’s,Jamaican,PRICE_LEVEL_MODERATE
ChIJWUOc55tZwokR9q_g5l051rk,IPPUDO NY,"65 4th Ave, New York, NY 10003, USA",4.4,5463.0,PRICE_LEVEL_MODERATE,restaurant,40.730948,-73.990287,https://www.ippudous.com/east-village,ippudo ny,0.051854186105028566,49.48145813894971,Claud,Contemporary,
ChIJQQOvwptZwokRNajaJCC5Yu0,Happy Bowls,"61 4th Ave, New York, NY 10003, USA",4.6,335.0,PRICE_LEVEL_INEXPENSIVE,restaurant,40.730799499999996,-73.9903207,https://www.happybowls.us/,happy bowls,0.054107901852809316,42.80892098147191,Claud,Contemporary,
ChIJWUOc55tZwokR9q_g5l051rk,IPPUDO NY,"65 4th Ave, New York, NY 10003, USA",4.4,5463.0,PRICE_LEVEL_MODERATE,restaurant,40.730948,-73.990287,https://www.ippudous.com/east-village,ippudo ny,0.051854186105028566,49.48145813894971,Penny,Seafood,
ChIJQQOvwptZwokRNajaJCC5Yu0,Happy Bowls,"61 4th Ave, New York, NY 10003, USA",4.6,335.0,PRICE_LEVEL_INEXPENSIVE,restaurant,40.730799499999996,-73.9903207,https://www.happybowls.us/,happy bowls,0.054107901852809316,42.80892098147191,Penny,Seafood,
ChIJzWP0UJ1ZwokR99xSXUOZZ08,Ray's Candy Store,"113 Avenue A, New York, NY 10009, USA",4.6,1356.0,PRICE_LEVEL_INEXPENSIVE,dessert_shop,40.726248999999996,-73.983575,http://www.rayscandystore.com/,rays candy store,0.026716118448289854,109.7328388155171,Superiority Burger,Vegetarian,PRICE_LEVEL_INEXPENSIVE
ChIJ5XAAap1ZwokRk-eUiFS2OaY,St. Dymphna's,"117 Avenue A, New York, NY 10009, USA",4.0,282.0,PRICE_LEVEL_INEXPENSIVE,pub,40.7264391,-73.9835768,https://www.stdymphnas.com/,st dymphnas,0.0075873943853113695,102.74412605614688,Superiority Burger,Vegetarian,PRICE_LEVEL_INEXPENSIVE
ChIJdWfZe5FZwokR8k6hhjU5uQo,Ladybird,"111 E 7th St, New York, NY 10009, USA",4.6,938.0,PRICE_LEVEL_MODERATE,restaurant,40.726680099999996,-73.9845333,https://ladybirdny.com/?utm_source=google,ladybird,0.04443890715630317,48.93561092843697,The Office of Mr. Moto,Japanese,PRICE_LEVEL_VERY_EXPENSIVE
ChIJTSV5mHNZwokR7WlyNR3YXSg,Crepe Master,"123 E 7th St, New York, NY 10009, USA",5.0,627.0,PRICE_LEVEL_MODERATE,restaurant,40.7264602,-73.9841691,http://www.crepemasternyc.com/,crepe master,0.04081211706612476,45.86187882933875,The Office of Mr. Moto,Japanese,PRICE_LEVEL_VERY_EXPENSIVE
ChIJ_UahM5RZwokRBtHbK9TH_z0,Morandi,"211 Waverly Pl, New York, NY 10014, USA",4.4,1625.0,PRICE_LEVEL_MODERATE,italian_restaurant,40.735316999999995,-74.00142819999999,http://www.morandiny.com/,morandi,0.06808552313991598,9.31914476860084,4 Charles Prime Rib,Steakhouse,PRICE_LEVEL_EXPENSIVE
ChIJCW5gj5ZZwokRtfK4UZxkcr4,Rosemary's,"18 Greenwich Ave, New York, NY 10011, USA",4.3,2701.0,PRICE_LEVEL_MODERATE,italian_restaurant,40.734836800000004,-73.9998009,https://www.rosemarysnyc.com/location/rosemarys-west-village/,rosemarys,0.07943706334937782,9.205629366506221,4 Charles Prime Rib,Steakhouse,PRICE_LEVEL_EXPENSIVE
ChIJK48-E51ZwokRvAA-v6fx9y0,Cafe Mogador,"101 St Marks Pl, New York, NY 10009, USA",4.5,3030.0,PRICE_LEVEL_MODERATE,moroccan_restaurant,40.7274314,-73.98431149999999,http://cafemogador.com/,cafe mogador,0.03384802810622554,9.661519718937745,Smithereens,Seafood,
ChIJVyFicJ1ZwokR2oIygOmovWw,Thursday Kitchen,"424 E 9th St, New York, NY 10009, USA",4.6,1416.0,PRICE_LEVEL_MODERATE,korean_restaurant,40.727565999999996,-73.98380499999999,http://www.thursdaykitchen.com/,thursday kitchen,0.043057142809692854,9.569428571903071,Smithereens,Seafood,
ChIJDeAEcRRZwokRiqpklOPPU9U,TOKUYAMATCHA & ONIGIRAZU BAR- E 6th St.,"627 E 6th St, New York, NY 10009, USA",4.4,439.0,PRICE_LEVEL_MODERATE,japanese_restaurant,40.7239875,-73.9801793,http://tokuyamasalon.com/cafe/,tokuyamatcha onigirazu bar e 6th st,0.0542295814237684,43.84770418576232,Bar Miller,Japanese,
ChIJtSmSI3hZwokRadPZ1D2XFzE,Pardon My French,"103 Avenue B, New York, NY 10009, USA",4.4,997.0,PRICE_LEVEL_EXPENSIVE,french_restaurant,40.7247571,-73.9811947,https://www.pmfnyc.com/,pardon my french,0.093729706270148,9.03270293729852,Bar Miller,Japanese,
ChIJrY6UTJxZwokRmL7yKAaqmKQ,Rai Rai Ken + Curry Ya + Otafuku,"218 E 10th St, New York, NY 10003, USA",4.4,1506.0,PRICE_LEVEL_MODERATE,japanese_restaurant,40.7292615,-73.98579509999999,http://rairaiken2000.com/,rai rai ken curry ya otafuku,0.037826218046870155,49.6217378195313,Tsukimi,Japanese,
ChIJ8fdYs51ZwokRA71PKvTvXG4,Shabu-Tatsu,"216 E 10th St, New York, NY 10003, USA",4.3,522.0,PRICE_LEVEL_MODERATE,japanese_restaurant,40.7292211,-73.98588629999999,https://www.shabutatsu.com/,shabutatsu,0.041285792542657934,44.80714207457342,Tsukimi,Japanese,
ChIJTaeWt5lZwokRj5-44r7fWgY,The Grey Dog - Union Square,"90 University Pl, New York, NY 10003, USA",4.4,1849.0,PRICE_LEVEL_MODERATE,american_restaurant,40.733795199999996,-73.99319899999999,https://www.thegreydog.com/location/the-grey-dog-union-square/,the grey dog union square,0.007252718660628152,109.92747281339372,Pranakhon,Thai,PRICE_LEVEL_MODERATE
ChIJCzeavZlZwokR2QIwtpnoa-M,Village Taverna,"81 University Pl, New York, NY 10003, USA",4.6,989.0,PRICE_LEVEL_MODERATE,greek_restaurant,40.733363499999996,-73.99307979999999,http://www.villagetaverna.com/,village taverna,0.04574969507061924,109.43250304929381,Pranakhon,Thai,PRICE_LEVEL_MODERATE
ChIJMcrE97VZwokR6_VTjbNC-MI,TabeTomo,"131 Avenue A, New York, NY 10009, USA",4.5,1157.0,PRICE_LEVEL_MODERATE,ramen_restaurant,40.7269404,-73.9831557,http://tabetomonyc.com/,tabetomo,0.020328507628980752,9.796714923710192,Rosella,Japanese,
ChIJBWyKZp1ZwokRHhnug4zTch4,Hanoi House,"119 St Marks Pl, New York, NY 10009, USA",4.5,1340.0,PRICE_LEVEL_MODERATE,vietnamese_restaurant,40.7270085,-73.9835497,http://www.hanoihousenyc.com/,hanoi house,0.045162783969635543,9.548372160303645,Rosella,Japanese,
ChIJa6mdy6hZwokRE4F61Qh3dlU,Playa Bowls,"493 6th Ave, New York, NY 10011, USA",4.6,150.0,PRICE_LEVEL_MODERATE,restaurant,40.736469899999996,-73.9978493,https://www.playabowls.com/location/greenwich-village,playa bowls,0.11157593159758952,140.3842406840241,Kubeh,Middle Eastern,PRICE_LEVEL_MODERATE
ChIJbVF-VpZZwokRheGwm9Fu0wQ,La Contenta Oeste,"78 W 11th St, New York, NY 10011, USA",4.5,1125.0,PRICE_LEVEL_MODERATE,mexican_restaurant,40.7352051,-73.9981588,https://lacontentanyc.com/,la contenta oeste,0.03204817412139185,109.67951825878608,Kubeh,Middle Eastern,PRICE_LEVEL_MODERATE
ChIJmY35mpxZwokRqGzYDD-4sJI,Mighty Quinn's Barbeque,"75 Greenwich Ave, New York, NY 10014, USA",4.3,3827.0,PRICE_LEVEL_MODERATE,barbecue_restaurant,40.7367129,-74.00139349999999,http://mightyquinnsbbq.com/,mighty quinns barbeque,0.1031748789994727,108.96825121000528,Semma,Indian,PRICE_LEVEL_MODERATE
ChIJ_UahM5RZwokRBtHbK9TH_z0,Morandi,"211 Waverly Pl, New York, NY 10014, USA",4.4,1625.0,PRICE_LEVEL_MODERATE,italian_restaurant,40.735316999999995,-74.00142819999999,http://www.morandiny.com/,morandi,0.1076835125858496,108.9231648741415,Semma,Indian,PRICE_LEVEL_MODERATE
ChIJxaI7kZ1ZwokR0Mjh_cJc5jI,Joe & Pat's NYC,"168 1st Ave, New York, NY 10009, USA",4.4,685.0,PRICE_LEVEL_MODERATE,pizza_restaurant,40.728905999999995,-73.9840414,https://joeandpatsnyc.com/,joe pats nyc,0.041465002595583556,6.435349974044164,HAGS,Contemporary,
ChIJ44SZj09ZwokRqIeN6EEd_VQ,Lhasa,"177 1st Ave, New York, NY 10003, USA",4.6,343.0,PRICE_LEVEL_INEXPENSIVE,tibetan_restaurant,40.729385099999995,-73.9843357,,lhasa,0.04305344520117319,2.9994655479882684,HAGS,Contemporary,
ChIJbxGBQJxZwokRyKepqIke4x8,Temakase Hand Roll Bar - 2nd Ave,"157 2nd Ave, New York, NY 10003, USA",4.5,1108.0,PRICE_LEVEL_MODERATE,sushi_restaurant,40.729741399999995,-73.9872113,https://temakasenyc.com/temakasehandrollbar-2ndave?utm_source=google,temakase hand roll bar 2nd ave,0.11998387692702599,148.80016123072974,Kanoyama,Japanese,PRICE_LEVEL_MODERATE
ChIJcxPkLJxZwokR7blp76Vu2qY,Love Mama,"174 2nd Ave, New York, NY 10003, USA",4.4,1686.0,PRICE_LEVEL_MODERATE,asian_restaurant,40.7303859,-73.9860613,https://www.lovemamanyc2.com/,love mama,0.0470771867353784,109.52922813264621,Kanoyama,Japanese,PRICE_LEVEL_MODERATE
ChIJxaI7kZ1ZwokR0Mjh_cJc5jI,Joe & Pat's NYC,"168 1st Ave, New York, NY 10009, USA",4.4,685.0,PRICE_LEVEL_MODERATE,pizza_restaurant,40.728905999999995,-73.9840414,https://joeandpatsnyc.com/,joe pats nyc,0.04605398272727454,106.38946017272725,Momofuku Noodle Bar,Asian,PRICE_LEVEL_MODERATE
ChIJhRgGlZ1ZwokRDmlaeoZBxAc,Iggy's Pizzeria,"173 1st Ave, New York, NY 10003, USA",4.4,130.0,PRICE_LEVEL_MODERATE,pizza_restaurant,40.7292592,-73.9843542,https://www.iggyspizzeriamenu.com/?utm_source=gbp,iggys pizzeria,0.007634205180847215,101.22365794819153,Momofuku Noodle Bar,Asian,PRICE_LEVEL_MODERATE
ChIJO9cxdk9awokRA-AU6Ie2hW8,Hadramout Restaurant,"172 Atlantic Ave, Brooklyn, NY 11201, USA",4.1,1229.0,PRICE_LEVEL_MODERATE,restaurant,40.6899392,-73.99381079999999,,hadramout restaurant,0.12720684642366342,148.72793153576336,Al Badawi,Middle Eastern,PRICE_LEVEL_MODERATE
ChIJExC3nU9awokRgODOvdb3awc,Yemen Café & Restaurant,"176 Atlantic Ave, Brooklyn, NY 11201, USA",4.5,3519.0,PRICE_LEVEL_MODERATE,restaurant,40.6898154,-73.99370189999999,https://yemencafe.com/yemencafrestaurantatlantic?utm_source=google,yemen caf restaurant,0.14299724231074484,148.57002757689256,Al Badawi,Middle Eastern,PRICE_LEVEL_MODERATE
ChIJx3Nrt55ZwokRP3Xiw0TGnKE,Han Dynasty,"90 3rd Ave, New York, NY 10003, USA",4.3,1520.0,PRICE_LEVEL_MODERATE,chinese_restaurant,40.7322306,-73.9882516,http://handynasty.net/east-village/,han dynasty,0.05357949813766928,9.464205018623307,Bánh Anh Em,Vietnamese,
ChIJDVHGG4tZwokRIByvqBESCuE,YGF Malatang,"92 3rd Ave, New York, NY 10003, USA",4.8,973.0,PRICE_LEVEL_INEXPENSIVE,chinese_restaurant,40.7322865,-73.988252,https://ygfny.com/ygfmalatang2?utm_source=google,ygf malatang,0.05354924903285933,9.194507509671407,Bánh Anh Em,Vietnamese,
ChIJx3Nrt55ZwokRP3Xiw0TGnKE,Han Dynasty,"90 3rd Ave, New York, NY 10003, USA",4.3,1520.0,PRICE_LEVEL_MODERATE,chinese_restaurant,40.7322306,-73.9882516,http://handynasty.net/east-village/,han dynasty,0.03984945305503277,109.60150546944968,Yellow Rose,Tex-Mex,PRICE_LEVEL_MODERATE
ChIJPfSN0VpZwokRyqr6M5SqiYk,Kyuramen - Union Square,"210 E 14th St, New York, NY 10003, USA",4.5,2069.0,PRICE_LEVEL_MODERATE,japanese_restaurant,40.7328208,-73.9868085,https://www.newyorkkyuramen.com/,kyuramen union square,0.10378962181986989,108.9621037818013,Yellow Rose,Tex-Mex,PRICE_LEVEL_MODERATE
ChIJ_WPcdpVZwokR6vSItP7fDZo,Cafe Cluny,"284 W 12th St, New York, NY 10014, USA",4.4,1364.0,PRICE_LEVEL_MODERATE,french_restaurant,40.7374114,-74.0039633,http://www.cafecluny.com/,cafe cluny,0.0181045629253633,9.818954370746367,Bartolo,Spanish,
ChIJo9tLC5VZwokR9t8kMnIACK0,St Tropez West Village,"304 W 4th St, New York, NY 10014, USA",4.6,943.0,PRICE_LEVEL_MODERATE,french_restaurant,40.737054,-74.0039038,https://www.sttropezwinebar.com/,st tropez west village,0.02367445233904644,9.193255476609535,Bartolo,Spanish,
ChIJC14NpOVZwokRvh01cwbXM5U,Jackdaw,"213 2nd Ave, New York, NY 10003, USA",4.3,681.0,PRICE_LEVEL_MODERATE,restaurant,40.7318571,-73.9855862,http://jackdawnyc.com/,jackdaw,0.05610382715380011,46.248961728462,Odre,Korean,
ChIJGVcSpcpZwokRHDpuQvq7y9Q,Jazba,"207 2nd Ave, New York, NY 10003, USA",4.6,1027.0,PRICE_LEVEL_MODERATE,indian_restaurant,40.7317071,-73.9858725,http://www.jazbanyc.com/,jazba,0.033423189059448376,9.665768109405516,Odre,Korean,
ChIJPfSN0VpZwokRyqr6M5SqiYk,Kyuramen - Union Square,"210 E 14th St, New York, NY 10003, USA",4.5,2069.0,PRICE_LEVEL_MODERATE,japanese_restaurant,40.7328208,-73.9868085,https://www.newyorkkyuramen.com/,kyuramen union square,0.07314503193143622,109.26854968068564,Soothr,Thai,PRICE_LEVEL_MODERATE
ChIJx3Nrt55ZwokRP3Xiw0TGnKE,Han Dynasty,"90 3rd Ave, New York, NY 10003, USA",4.3,1520.0,PRICE_LEVEL_MODERATE,chinese_restaurant,40.7322306,-73.9882516,http://handynasty.net/east-village/,han dynasty,0.07707458333782181,109.22925416662179,Soothr,Thai,PRICE_LEVEL_MODERATE
ChIJ_WPcdpVZwokR6vSItP7fDZo,Cafe Cluny,"284 W 12th St, New York, NY 10014, USA",4.4,1364.0,PRICE_LEVEL_MODERATE,french_restaurant,40.7374114,-74.0039633,http://www.cafecluny.com/,cafe cluny,0.030606559468300012,49.693934405317,Le B,French,PRICE_LEVEL_VERY_EXPENSIVE
ChIJo9tLC5VZwokR9t8kMnIACK0,St Tropez West Village,"304 W 4th St, New York, NY 10014, USA",4.6,943.0,PRICE_LEVEL_MODERATE,french_restaurant,40.737054,-74.0039038,https://www.sttropezwinebar.com/,st tropez west village,0.07066099853699565,48.72339001463004,Le B,French,PRICE_LEVEL_VERY_EXPENSIVE
ChIJh0Elkf1ZwokRrFXIVkSPvKU,Mino Brasserie,"225 W 12th St, New York, NY 10011, USA",4.7,649.0,PRICE_LEVEL_EXPENSIVE,french_restaurant,40.7377938,-74.0016243,https://minobrasserie.com/,mino brasserie,0.03958044397391979,106.0941955602608,Don Angie,Italian,PRICE_LEVEL_EXPENSIVE
ChIJxwZIH75ZwokR_A9YYNU38os,Tea & Sympathy,"108 Greenwich Ave, New York, NY 10011, USA",4.2,1522.0,PRICE_LEVEL_MODERATE,british_restaurant,40.738313,-74.00193,http://www.teaandsympathy.com/,tea sympathy,0.04132608550933289,9.586739144906671,Kosaka,Japanese,PRICE_LEVEL_VERY_EXPENSIVE
ChIJeUdFIr5ZwokRqSz0MyKFBVg,A Salt & Battery,"112 Greenwich Ave, New York, NY 10011, USA",4.3,1106.0,PRICE_LEVEL_MODERATE,fish_and_chips_restaurant,40.738402199999996,-74.0019757,https://www.asaltandbattery.com/,a salt battery,0.04732844598555653,9.526715540144435,Kosaka,Japanese,PRICE_LEVEL_VERY_EXPENSIVE
ChIJNTHMPrdbwokRIgmROnpA1RI,Smør,"441 E 12th St, New York, NY 10009, USA",4.6,465.0,PRICE_LEVEL_MODERATE,restaurant,40.7292953,-73.98153570000001,http://www.smornyc.com/,smr,0.0569383020416313,44.08061697958369,Ishq,Indian,
ChIJ8aHLpR9ZwokRvJa7UWwQWY8,House of Pasta NYC,"511 E 12th St, New York, NY 10009, USA",4.8,345.0,PRICE_LEVEL_MODERATE,restaurant,40.7289591,-73.9806098,http://houseofpastanyc.com/,house of pasta nyc,0.049998529154183624,42.95001470845817,Ishq,Indian,
ChIJ8U_F9b9ZwokRTaHyDKWRNSg,Pastis,"52 Gansevoort St, New York, NY 10014, USA",4.6,3069.0,PRICE_LEVEL_EXPENSIVE,restaurant,40.739241799999995,-74.007014,https://pastisnyc.com/?utm_source=GoogleBusinessProfile&utm_medium=Website&utm_campaign=MapLabs,pastis,0.10962362615039822,48.90376373849602,Bangkok Supper Club,Thai,
ChIJu3WF-z9ZwokRSIlFddmXX1k,Osteria Nonnino,"637 Hudson St, New York, NY 10014, USA",4.8,3681.0,PRICE_LEVEL_MODERATE,italian_restaurant,40.7388972,-74.0057401,http://www.osterianonnino.com/,osteria nonnino,0.01665754546813479,9.833424545318652,Bangkok Supper Club,Thai,
ChIJZwlh8EtawokRtWXFNqZRuqA,Panda Express,"423 Fulton St, Brooklyn, NY 11201, USA",3.9,966.0,PRICE_LEVEL_INEXPENSIVE,chinese_restaurant,40.692035499999996,-73.988069,https://www.pandaexpress.com/locations/ny/brooklyn/2614?utm_source=google_gbp&utm_medium=organic&utm_campaign=websitelink,panda express,0.07923427429524044,8.867657257047595,Gage & Tollner,Steakhouse,
ChIJQ67JVkxawokRtIjM49-tS8M,Bed-Stuy Fish Fry,"129 Livingston St Floor 1, Brooklyn, NY 11201, USA",3.4,721.0,PRICE_LEVEL_INEXPENSIVE,seafood_restaurant,40.690903000000006,-73.9886137,https://bedstuyfishfry.com/,bedstuy fish fry,0.08329261890403379,6.377073810959662,Gage & Tollner,Steakhouse,
ChIJ8U_F9b9ZwokRTaHyDKWRNSg,Pastis,"52 Gansevoort St, New York, NY 10014, USA",4.6,3069.0,PRICE_LEVEL_EXPENSIVE,restaurant,40.739241799999995,-74.007014,https://pastisnyc.com/?utm_source=GoogleBusinessProfile&utm_medium=Website&utm_campaign=MapLabs,pastis,0.02700972865597761,49.729902713440225,The Dining Room at The Guesthouse,Contemporary,
ChIJCRHri79ZwokRtRtXu6RcEsA,Catch,"21 9th Ave, New York, NY 10014, USA",4.1,4557.0,PRICE_LEVEL_EXPENSIVE,restaurant,40.7402424,-74.00609790000001,https://www.catchrestaurants.com/location/catch-nyc/,catch,0.11303285355000078,48.869671464499994,The Dining Room at The Guesthouse,Contemporary,
ChIJo7kAbVBawokRKkafvpa2WLM,June,"231 Court St, Brooklyn, NY 11201, USA",4.4,444.0,PRICE_LEVEL_MODERATE,restaurant,40.6860636,-73.9938871,http://junebk.com/,june,0.25400368868903017,41.8999631131097,Saint Julivert Fisherie,Seafood,
ChIJr0CoF1BawokRDt4XLJXyJMA,Joya,"215 Court St, Brooklyn, NY 11201, USA",4.3,1259.0,PRICE_LEVEL_INEXPENSIVE,thai_restaurant,40.6866665,-73.9935596,https://www.joyathaibrooklyn.com/,joya,0.22613289521577118,7.738671047842288,Saint Julivert Fisherie,Seafood,
ChIJo7kAbVBawokRKkafvpa2WLM,June,"231 Court St, Brooklyn, NY 11201, USA",4.4,444.0,PRICE_LEVEL_MODERATE,restaurant,40.6860636,-73.9938871,http://junebk.com/,june,0.24861961964804724,41.95380380351953,La Vara,Spanish,PRICE_LEVEL_EXPENSIVE
ChIJr0CoF1BawokRDt4XLJXyJMA,Joya,"215 Court St, Brooklyn, NY 11201, USA",4.3,1259.0,PRICE_LEVEL_INEXPENSIVE,thai_restaurant,40.6866665,-73.9935596,https://www.joyathaibrooklyn.com/,joya,0.22318747079313556,7.768125292068644,La Vara,Spanish,PRICE_LEVEL_EXPENSIVE
ChIJHej6Z6JZwokRqvLB5IfS6Nc,Lillie's Victorian Establishment,"13 E 17th St, New York, NY 10003, USA",4.2,2275.0,PRICE_LEVEL_MODERATE,restaurant,40.737688299999995,-73.9911216,http://www.lilliesnyc.com/,lillies victorian establishment,0.04735690209482359,49.52643097905177,Kanyakumari,Indian,
ChIJQ7XpyqNZwokRQpVfvGEViWM,Barn Joo Union Square,"35 Union Square W, New York, NY 10003, USA",4.4,2067.0,PRICE_LEVEL_MODERATE,restaurant,40.736868,-73.990738,https://www.barnjoo.com/,barn joo union square,0.06166931754369598,49.38330682456304,Kanyakumari,Indian,
ChIJN40c3qFZwokRXMy2Eb1vKj8,Dear Irving Gramercy,"55 Irving Pl, New York, NY 10003, USA",4.6,1052.0,PRICE_LEVEL_EXPENSIVE,cocktail_bar,40.7362117,-73.98745439999999,http://www.dearirving.com/,dear irving gramercy,0.04438852073230885,109.55611479267691,Casa Mono,Spanish,PRICE_LEVEL_EXPENSIVE
ChIJHej6Z6JZwokRqvLB5IfS6Nc,Lillie's Victorian Establishment,"13 E 17th St, New York, NY 10003, USA",4.2,2275.0,PRICE_LEVEL_MODERATE,restaurant,40.737688299999995,-73.9911216,http://www.lilliesnyc.com/,lillies victorian establishment,0.007843671295133997,149.92156328704866,La Dong,Vietnamese,PRICE_LEVEL_MODERATE
ChIJ0cnn-0xZwokRuVsKHV6GCCQ,Pasta Eater,"9 E 17th St, New York, NY 10003, USA",4.5,1532.0,PRICE_LEVEL_MODERATE,italian_restaurant,40.7376869,-73.99133379999999,https://www.pasta-eater.com/,pasta eater,0.011486461874003241,109.88513538125997,La Dong,Vietnamese,PRICE_LEVEL_MODERATE
ChIJyVewyABZwokRv1qJTtiP2ws,Vinyl Steakhouse,"35 W 19th St, New York, NY 10011, USA",4.7,821.0,PRICE_LEVEL_EXPENSIVE,restaurant,40.740035899999995,-73.993096,https://www.vinylsteakhouse.com/,vinyl steakhouse,0.10278441421338334,147.18215585786618,Kyma,Greek,PRICE_LEVEL_EXPENSIVE
ChIJucdA0KJZwokRSRxyOarSWoI,Yakiniku Futago Chelsea,"37 W 17th St, New York, NY 10011, USA",4.6,1256.0,PRICE_LEVEL_EXPENSIVE,barbecue_restaurant,40.7389084,-73.9940515,http://www.futago25usa.com/,yakiniku futago chelsea,0.10807499252380547,108.91925007476195,Kyma,Greek,PRICE_LEVEL_EXPENSIVE
ChIJW0QgRVxawokRUyql2Nk9v0k,Mex Carroll's Diner,"192 Columbia St, Brooklyn, NY 11231, USA",4.3,203.0,PRICE_LEVEL_MODERATE,restaurant,40.6855227,-74.0026604,https://www.mexcarrollsdiner.com/,mex carrolls diner,0.18961862372039065,40.133813762796095,Sal Tang's,Chinese Contemporary,
ChIJY2jhXFxawokR3yjeUK_alQ0,Alma BK,"187 Columbia St, Brooklyn, NY 11231, USA",4.3,894.0,PRICE_LEVEL_MODERATE,mexican_restaurant,40.6855707,-74.0021592,https://www.almabk.com/,alma bk,0.14867414282282435,7.453258571771756,Sal Tang's,Chinese Contemporary,
ChIJPbpC37xZwokRIsT-jIuHUr8,da Umberto,"107 W 17th St, New York, NY 10011, USA",4.5,385.0,PRICE_LEVEL_EXPENSIVE,italian_restaurant,40.7395815,-73.9959104,https://daumbertonyc.com/,da umberto,0.07709420586610705,143.07905794133893,Portale,Italian,PRICE_LEVEL_EXPENSIVE
ChIJu1T8lkxZwokRkHn4iykqt24,Terra - Eat Better Food,"124 7th Ave, New York, NY 10011, USA",4.6,457.0,PRICE_LEVEL_EXPENSIVE,mediterranean_restaurant,40.7408977,-73.99840619999999,https://terra-ny.com/,terra eat better food,0.19540327074100694,102.61596729258993,Portale,Italian,PRICE_LEVEL_EXPENSIVE
ChIJN-93ZsBZwokRMe_yr5I34Ik,The Standard Biergarten,"848 Washington St, New York, NY 10014, USA",4.1,1754.0,PRICE_LEVEL_MODERATE,beer_garden,40.7406534,-74.00821770000002,https://www.standardhotels.com/new-york/features/biergarten-nyc/?utm_source=google&utm_campaign=google_my_business&utm_medium=organic,the standard biergarten,0.09272671134069409,9.072732886593059,Genesis House Restaurant,Korean,
ChIJN-93ZsBZwokRonoT5y_yB1c,The Standard Grill,"The Standard, High Line, 848 Washington St, New York, NY 10014, USA",4.2,1637.0,PRICE_LEVEL_EXPENSIVE,bar_and_grill,40.7406769,-74.00787629999999,https://www.thestandardgrill.com/?utm_source=google&utm_campaign=google_my_business&utm_medium=organic,the standard grill,0.09300261623952279,9.069973837604772,Genesis House Restaurant,Korean,
ChIJSXmIIqJZwokRIhhDroV3qX8,abc kitchen,"35 E 18th St, New York, NY 10003, USA",4.4,3039.0,PRICE_LEVEL_EXPENSIVE,restaurant,40.737775,-73.9896167,https://www.abckitchen.nyc/,abc kitchen,0.036144023313852934,149.63855976686148,abcV,Vegetarian,PRICE_LEVEL_EXPENSIVE
ChIJ7ZjZzaNZwokR1avg50N7ORg,Vallata,"47 E 19th St, New York, NY 10003, USA",4.4,336.0,PRICE_LEVEL_EXPENSIVE,italian_restaurant,40.73807,-73.9885877,https://www.vallatanyc.com/,vallata,0.059515218340300644,102.764847816597,abcV,Vegetarian,PRICE_LEVEL_EXPENSIVE
ChIJM77SlaFZwokRUdDxtDv9560,Daily Provisions - Union Square,"103 E 19th St, New York, NY 10003, USA",4.6,1259.0,PRICE_LEVEL_MODERATE,restaurant,40.7376631,-73.9876085,https://dailyprovisions.co/,daily provisions union square,0.04260608760616961,49.5739391239383,Oceans,Seafood,PRICE_LEVEL_VERY_EXPENSIVE
ChIJxTHke6JZwokRCLWVd99eDBw,Union Square Cafe,"101 E 19th St, New York, NY 10003, USA",4.6,2362.0,PRICE_LEVEL_EXPENSIVE,american_restaurant,40.7377702,-73.9878767,https://www.unionsquarecafe.com/?utm_source=google&utm_medium=gmb,union square cafe,0.0307805468922548,9.692194531077451,Oceans,Seafood,PRICE_LEVEL_VERY_EXPENSIVE
ChIJM77SlaFZwokRUdDxtDv9560,Daily Provisions - Union Square,"103 E 19th St, New York, NY 10003, USA",4.6,1259.0,PRICE_LEVEL_MODERATE,restaurant,40.7376631,-73.9876085,https://dailyprovisions.co/,daily provisions union square,0.02540700258657622,49.745929974134235,Carlotto,Contemporary,
ChIJxTHke6JZwokRCLWVd99eDBw,Union Square Cafe,"101 E 19th St, New York, NY 10003, USA",4.6,2362.0,PRICE_LEVEL_EXPENSIVE,american_restaurant,40.7377702,-73.9878767,https://www.unionsquarecafe.com/?utm_source=google&utm_medium=gmb,union square cafe,0.041744251953730264,9.582557480462697,Carlotto,Contemporary,
ChIJyVewyABZwokRv1qJTtiP2ws,Vinyl Steakhouse,"35 W 19th St, New York, NY 10011, USA",4.7,821.0,PRICE_LEVEL_EXPENSIVE,restaurant,40.740035899999995,-73.993096,https://www.vinylsteakhouse.com/,vinyl steakhouse,0.06606772366846969,47.5493227633153,Oiji Mi,Korean,
ChIJFQLWr5VbwokRnbtHDMFSBeE,Dough Doughnuts Flatiron,"14 West 19th Street at, 5th Ave, New York, NY 10011, USA",4.5,3302.0,PRICE_LEVEL_MODERATE,donut_shop,40.739424199999995,-73.9924001,https://www.doughdoughnuts.com/,dough doughnuts flatiron,0.027998054391454842,9.720019456085451,Oiji Mi,Korean,
ChIJyVewyABZwokRv1qJTtiP2ws,Vinyl Steakhouse,"35 W 19th St, New York, NY 10011, USA",4.7,821.0,PRICE_LEVEL_EXPENSIVE,restaurant,40.740035899999995,-73.993096,https://www.vinylsteakhouse.com/,vinyl steakhouse,0.06606772366846969,47.5493227633153,bōm,Korean,
ChIJFQLWr5VbwokRnbtHDMFSBeE,Dough Doughnuts Flatiron,"14 West 19th Street at, 5th Ave, New York, NY 10011, USA",4.5,3302.0,PRICE_LEVEL_MODERATE,donut_shop,40.739424199999995,-73.9924001,https://www.doughdoughnuts.com/,dough doughnuts flatiron,0.027998054391454842,9.720019456085451,bōm,Korean,
ChIJafcWm6FZwokRAD6WiHiQdpE,Barbounia,"250 Park Ave S, New York, NY 10003, USA",4.7,4843.0,PRICE_LEVEL_EXPENSIVE,mediterranean_restaurant,40.7383263,-73.9880646,https://barbounia.com/,barbounia,0.039898783185007176,9.601012168149929,Gramercy Tavern,Contemporary,PRICE_LEVEL_VERY_EXPENSIVE
ChIJb9HznqFZwokRHWxf3DbskaI,L’Express,"249 Park Ave S, New York, NY 10003, USA",4.5,2937.0,PRICE_LEVEL_MODERATE,french_restaurant,40.7381523,-73.987657,https://lexpressnyc.com/,lexpress,0.07910773693422869,9.208922630657714,Gramercy Tavern,Contemporary,PRICE_LEVEL_VERY_EXPENSIVE
ChIJaQstV6RZwokRevttuT0ZsqA,Tappo NYC Thin Crust Pizza,"32 E 21st St, New York, NY 10010, USA",4.5,1317.0,PRICE_LEVEL_MODERATE,pizza_restaurant,40.739306299999996,-73.9887692,https://www.nycthincrust.com/location/tappo-thin-crust/,tappo nyc thin crust pizza,0.03394914433710839,49.66050855662892,Rezdôra,Italian,
ChIJX68xNnhZwokRbktHVFdiUKo,The Best Sichuan 一品成都21,"22 E 21st St, New York, NY 10010, USA",4.9,2401.0,PRICE_LEVEL_MODERATE,chinese_restaurant,40.739438899999996,-73.98913809999999,http://www.malahouse21.com/,the best sichuan 21,0.04036058299114918,9.596394170088509,Rezdôra,Italian,
ChIJyVewyABZwokRv1qJTtiP2ws,Vinyl Steakhouse,"35 W 19th St, New York, NY 10011, USA",4.7,821.0,PRICE_LEVEL_EXPENSIVE,restaurant,40.740035899999995,-73.993096,https://www.vinylsteakhouse.com/,vinyl steakhouse,0.07958763132628206,47.41412368673718,Noda,Japanese,PRICE_LEVEL_VERY_EXPENSIVE
ChIJSZr2ZqNZwokRN89ggdSWGiQ,Slate,"54 W 21st St, New York, NY 10010, USA",4.0,3604.0,PRICE_LEVEL_MODERATE,bar,40.741215499999996,-73.9931854,http://www.slate-ny.com/,slate,0.051794025659764806,9.482059743402353,Noda,Japanese,PRICE_LEVEL_VERY_EXPENSIVE
ChIJyVewyABZwokRv1qJTtiP2ws,Vinyl Steakhouse,"35 W 19th St, New York, NY 10011, USA",4.7,821.0,PRICE_LEVEL_EXPENSIVE,restaurant,40.740035899999995,-73.993096,https://www.vinylsteakhouse.com/,vinyl steakhouse,0.08837226555346858,47.32627734446532,odo,Japanese,PRICE_LEVEL_VERY_EXPENSIVE
ChIJpcpgtJlZwokRN-7iXW55x-o,Honeybrains,"34 W 22nd St, New York, NY 10010, USA",4.4,317.0,PRICE_LEVEL_MODERATE,restaurant,40.7414981,-73.9920247,https://www.honeybrains.com/location/honeybrains-22nd-st/,honeybrains,0.12285227669744964,41.94147723302551,odo,Japanese,PRICE_LEVEL_VERY_EXPENSIVE
ChIJ48gkMKJZwokRSaYLlPCYde8,Le Pain Quotidien,"921 Broadway, New York, NY 10010, USA",3.8,755.0,PRICE_LEVEL_MODERATE,restaurant,40.740046,-73.9897012,https://lepainquotidien.com/us/stores/3002:%2021st_&_broadway?utm_source=gmb&utm_medium=business-listing,le pain quotidien,0.0474736061493269,47.07526393850673,Massara,Italian,
ChIJX68xNnhZwokRbktHVFdiUKo,The Best Sichuan 一品成都21,"22 E 21st St, New York, NY 10010, USA",4.9,2401.0,PRICE_LEVEL_MODERATE,chinese_restaurant,40.739438899999996,-73.98913809999999,http://www.malahouse21.com/,the best sichuan 21,0.06479411621887429,9.352058837811256,Massara,Italian,
ChIJ9dhbu01awokRdKfkixsK10w,Bijan's,"81 Hoyt St, Brooklyn, NY 11201, USA",4.3,1286.0,PRICE_LEVEL_MODERATE,american_restaurant,40.687971399999995,-73.9867095,http://www.bijansbrooklyn.com/,bijans,0.06492180290005525,109.35078197099945,Mile End,Deli,PRICE_LEVEL_MODERATE
ChIJgRjO3E1awokRoC9SdsHbe-w,French Louie,"320 Atlantic Ave, Brooklyn, NY 11201, USA",4.5,1295.0,PRICE_LEVEL_MODERATE,french_restaurant,40.6880126,-73.988216,http://frenchlouienyc.com/,french louie,0.11717668475575953,108.82823315244241,Mile End,Deli,PRICE_LEVEL_MODERATE
ChIJaQstV6RZwokRevttuT0ZsqA,Tappo NYC Thin Crust Pizza,"32 E 21st St, New York, NY 10010, USA",4.5,1317.0,PRICE_LEVEL_MODERATE,pizza_restaurant,40.739306299999996,-73.9887692,https://www.nycthincrust.com/location/tappo-thin-crust/,tappo nyc thin crust pizza,0.047344732081971055,9.52655267918029,Cosme,Mexican,PRICE_LEVEL_VERY_EXPENSIVE
ChIJX68xNnhZwokRbktHVFdiUKo,The Best Sichuan 一品成都21,"22 E 21st St, New York, NY 10010, USA",4.9,2401.0,PRICE_LEVEL_MODERATE,chinese_restaurant,40.739438899999996,-73.98913809999999,http://www.malahouse21.com/,the best sichuan 21,0.06811336294196005,9.3188663705804,Cosme,Mexican,PRICE_LEVEL_VERY_EXPENSIVE
ChIJw2lMFL9ZwokRyO_5o2VT8os,Friedman's,"75 9th Ave, New York, NY 10011, USA",4.5,1707.0,PRICE_LEVEL_MODERATE,restaurant,40.742692999999996,-74.0062283,https://www.friedmansrestaurant.com/,friedmans,0.04052905269485026,49.594709473051495,La Devozione: The Oval,Italian,
ChIJ81QWXL9ZwokRse_zeq7DHrQ,Filaga,"75 9th Ave, New York, NY 10011, USA",4.5,760.0,PRICE_LEVEL_INEXPENSIVE,pizza_restaurant,40.742160299999995,-74.0056736,http://www.filaga.com/,filaga,0.050147572456491665,47.09852427543508,La Devozione: The Oval,Italian,
ChIJ395CMVlawokRt2oLH_8zmvI,Lucali,"575 Henry St, Brooklyn, NY 11231, USA",4.2,3024.0,PRICE_LEVEL_MODERATE,pizza_restaurant,40.681826,-74.0003184,https://www.lucali.com/,lucali,0.20817105111083387,7.918289488891661,Untable,Thai,
ChIJY2jhXFxawokR3yjeUK_alQ0,Alma BK,"187 Columbia St, Brooklyn, NY 11231, USA",4.3,894.0,PRICE_LEVEL_MODERATE,mexican_restaurant,40.6855707,-74.0021592,https://www.almabk.com/,alma bk,0.3190134844005707,5.749865155994293,Untable,Thai,
ChIJ395CMVlawokRt2oLH_8zmvI,Lucali,"575 Henry St, Brooklyn, NY 11231, USA",4.2,3024.0,PRICE_LEVEL_MODERATE,pizza_restaurant,40.681826,-74.0003184,https://www.lucali.com/,lucali,0.1995060013652756,108.00493998634724,Gus's Chop House,Steakhouse,PRICE_LEVEL_MODERATE
ChIJD_vG4ltawokRE4BzRSy5BBk,Bar Bruno,"520 Henry St, Brooklyn, NY 11231, USA",4.3,500.0,PRICE_LEVEL_MODERATE,mexican_restaurant,40.683418599999996,-73.99991709999999,http://www.barbrunonyc.com/,bar bruno,0.05111635981798294,104.48883640182017,Gus's Chop House,Steakhouse,PRICE_LEVEL_MODERATE
ChIJw2lMFL9ZwokRyO_5o2VT8os,Friedman's,"75 9th Ave, New York, NY 10011, USA",4.5,1707.0,PRICE_LEVEL_MODERATE,restaurant,40.742692999999996,-74.0062283,https://www.friedmansrestaurant.com/,friedmans,0.13584117229629641,48.64158827703704,Crane Club,Steakhouse,
ChIJ8VQWXL9ZwokRvzf2OM4TNP4,Miznon,"435 W 15th St, New York, NY 10011, USA",4.4,2914.0,PRICE_LEVEL_MODERATE,israeli_restaurant,40.742497799999995,-74.0064227,http://miznonusa.com/,miznon,0.138254576623394,8.61745423376606,Crane Club,Steakhouse,
ChIJw2lMFL9ZwokRyO_5o2VT8os,Friedman's,"75 9th Ave, New York, NY 10011, USA",4.5,1707.0,PRICE_LEVEL_MODERATE,restaurant,40.742692999999996,-74.0062283,https://www.friedmansrestaurant.com/,friedmans,0.1292892514349816,48.707107485650184,Noz 17,Japanese,
ChIJw2lMFL9ZwokRXmhKDX7Chxs,Lobster Place,"75 9th Ave, New York, NY 10011, USA",4.5,3678.0,PRICE_LEVEL_EXPENSIVE,seafood_restaurant,40.742553,-74.006052,http://www.lobsterplace.com/,lobster place,0.14806464982782352,8.519353501721765,Noz 17,Japanese,
ChIJkbC15FpZwokRgHmMMiGqxsA,ANDIAMO PIZZA,"115 E 23rd St, New York, NY 10010, USA",4.6,875.0,PRICE_LEVEL_MODERATE,pizza_restaurant,40.740063,-73.9855319,https://www.orderandiamopizza.com/?utm_source=gbp,andiamo pizza,0.12156368229820631,47.53436317701794,Novitá,Italian,PRICE_LEVEL_EXPENSIVE
ChIJ2WXqCqFZwokRK4TaGtes0_0,BRAVO PIZZA,"257 Park Ave S, New York, NY 10010, USA",4.4,817.0,PRICE_LEVEL_INEXPENSIVE,pizza_restaurant,40.7386336,-73.9872977,https://www.bravopizzamenu.com/?utm_source=gbp,bravo pizza,0.09620716067807585,47.20792839321924,Novitá,Italian,PRICE_LEVEL_EXPENSIVE
ChIJ48gkMKJZwokRSaYLlPCYde8,Le Pain Quotidien,"921 Broadway, New York, NY 10010, USA",3.8,755.0,PRICE_LEVEL_MODERATE,restaurant,40.740046,-73.9897012,https://lepainquotidien.com/us/stores/3002:%2021st_&_broadway?utm_source=gmb&utm_medium=business-listing,le pain quotidien,0.08042414526887463,46.74575854731125,Coqodaq,Korean,PRICE_LEVEL_VERY_EXPENSIVE
ChIJX68xNnhZwokRbktHVFdiUKo,The Best Sichuan 一品成都21,"22 E 21st St, New York, NY 10010, USA",4.9,2401.0,PRICE_LEVEL_MODERATE,chinese_restaurant,40.739438899999996,-73.98913809999999,http://www.malahouse21.com/,the best sichuan 21,0.07612061027179245,9.238793897282076,Coqodaq,Korean,PRICE_LEVEL_VERY_EXPENSIVE
ChIJw7SsU_pZwokREyGSSulF53U,Misi,"329 Kent Ave, Brooklyn, NY 11249, USA",4.3,1824.0,PRICE_LEVEL_VERY_EXPENSIVE,italian_restaurant,40.713401,-73.9671874,http://www.misinewyork.com/,misi,0.12301412421959042,108.7698587578041,Aska,Scandinavian,PRICE_LEVEL_VERY_EXPENSIVE
ChIJw85ZeK9ZwokRLfXj_uCbn9Q,S&P Lunch,"174 5th Ave, New York, NY 10010, USA",4.6,582.0,PRICE_LEVEL_MODERATE,restaurant,40.7411388,-73.99014679999999,http://www.sandwich.place/,sp lunch,0.09496615489918177,44.87033845100818,Cote,Korean,PRICE_LEVEL_VERY_EXPENSIVE
ChIJpcpgtJlZwokRN-7iXW55x-o,Honeybrains,"34 W 22nd St, New York, NY 10010, USA",4.4,317.0,PRICE_LEVEL_MODERATE,restaurant,40.7414981,-73.9920247,https://www.honeybrains.com/location/honeybrains-22nd-st/,honeybrains,0.0685237309844263,42.48476269015574,Cote,Korean,PRICE_LEVEL_VERY_EXPENSIVE
ChIJ_983W-tZwokR1p3acUbn4JA,Springbone Kitchen,"38 E 23rd St, New York, NY 10010, USA",4.6,229.0,PRICE_LEVEL_MODERATE,restaurant,40.740379,-73.98741869999999,https://springbone.com/,springbone kitchen,0.08606122457962172,41.42938775420378,Jua,Korean,PRICE_LEVEL_VERY_EXPENSIVE
ChIJ_frk8OxZwokRZxWrrxMId1E,Rooted,"38 E 23rd St, New York, NY 10010, USA",4.4,89.0,PRICE_LEVEL_MODERATE,restaurant,40.740379,-73.98741869999999,http://rootedrestaurants.com/,rooted,0.08606122457962172,40.02938775420378,Jua,Korean,PRICE_LEVEL_VERY_EXPENSIVE
ChIJpRmiZz9ZwokRuNshIg9W8LQ,Tacocina,"25 River St, Brooklyn, NY 11249, USA",3.9,469.0,PRICE_LEVEL_MODERATE,restaurant,40.715235299999996,-73.96765789999999,https://www.heytacocina.com/,tacocina,0.2288551896465373,42.40144810353463,Shota Omakase,Japanese,
ChIJw7SsU_pZwokREyGSSulF53U,Misi,"329 Kent Ave, Brooklyn, NY 11249, USA",4.3,1824.0,PRICE_LEVEL_VERY_EXPENSIVE,italian_restaurant,40.713401,-73.9671874,http://www.misinewyork.com/,misi,0.08782315384874219,9.121768461512579,Shota Omakase,Japanese,
ChIJDQ2b1KBZwokRzp_zk_w6MAc,Just Salad,"315 Park Ave S, New York, NY 10010, USA",4.6,502.0,PRICE_LEVEL_MODERATE,restaurant,40.7406149,-73.985852,https://www.justsalad.com/,just salad,0.04107033288042468,44.60929667119575,La Tête d’Or,Steakhouse,
ChIJ2d8VLKdZwokRuFhVXsVySjU,CAVA,"325 Park Ave S, New York, NY 10010, USA",4.6,2002.0,PRICE_LEVEL_MODERATE,mediterranean_restaurant,40.7408754,-73.98548559999999,https://cava.com/locations/24th-park-avenue-ny,cava,0.0753748560121252,9.246251439878748,La Tête d’Or,Steakhouse,
ChIJxzWCXBpZwokR_f2MzdPXfs0,Isla & Co. - Williamsburg,"66 Grand St, Brooklyn, NY 11249, USA",4.9,1606.0,PRICE_LEVEL_MODERATE,restaurant,40.7156514,-73.96504639999999,https://www.isla-co.com/williamsburg,isla co williamsburg,0.16344223863346768,148.36557761366532,Sunday in Brooklyn,American,PRICE_LEVEL_MODERATE
ChIJN7sVKcJZwokRZp59H74tSFg,Antidote,"66 S 2nd St, Brooklyn, NY 11249, USA",4.8,2081.0,PRICE_LEVEL_MODERATE,chinese_restaurant,40.7142531,-73.9654481,http://antidoteny.com/,antidote,0.010472899970923663,109.89527100029076,Sunday in Brooklyn,American,PRICE_LEVEL_MODERATE
ChIJe_H4tKZZwokRIKL-M0_luB0,The Clocktower,"5 Madison Ave, New York, NY 10010, USA",4.4,816.0,PRICE_LEVEL_EXPENSIVE,restaurant,40.741295,-73.987368,https://theclocktowernyc.com/?utm_source=GoogleBusinessProfile&utm_medium=Website&utm_campaign=MapLabs,the clocktower,0.04123012159157947,47.7476987840842,Eleven Madison Park,Contemporary,PRICE_LEVEL_VERY_EXPENSIVE
ChIJ_983W-tZwokR1p3acUbn4JA,Springbone Kitchen,"38 E 23rd St, New York, NY 10010, USA",4.6,229.0,PRICE_LEVEL_MODERATE,restaurant,40.740379,-73.98741869999999,https://springbone.com/,springbone kitchen,0.14238089114614663,40.866191088538535,Eleven Madison Park,Contemporary,PRICE_LEVEL_VERY_EXPENSIVE
ChIJQ-CvczNZwokRpXG_aN7SPgE,Hole In The Wall - Flatiron,"37 W 24th St, New York, NY 10010, USA",4.7,3721.0,PRICE_LEVEL_MODERATE,restaurant,40.74328260000001,-73.9910239,https://www.holeinthewallnyc.com/flatiron-district,hole in the wall flatiron,0.05786498568124915,49.42135014318751,Junoon,Indian,PRICE_LEVEL_VERY_EXPENSIVE
ChIJW3Q406VZwokR_1R4IGTq4oA,INDAY,"1133 Broadway, New York, NY 10010, USA",4.5,733.0,PRICE_LEVEL_INEXPENSIVE,indian_restaurant,40.74382,-73.989469,http://indayallday.com/,inday,0.11427528233880013,46.187247176612,Junoon,Indian,PRICE_LEVEL_VERY_EXPENSIVE
ChIJe7s_HrhbwokRrPbAngfFzRU,Buff Patty,"376 Myrtle Ave, Brooklyn, NY 11205, USA",3.9,954.0,PRICE_LEVEL_MODERATE,restaurant,40.692977,-73.971148,https://www.buffpatty.com/,buff patty,0.18281179095765343,147.71188209042344,Glin Thai Bistro,Thai,PRICE_LEVEL_MODERATE
ChIJqRCAF7hbwokRSOXqtotDWRw,Energy Fuel,"386 Myrtle Ave, Brooklyn, NY 11205, USA",4.1,202.0,PRICE_LEVEL_MODERATE,restaurant,40.6930536,-73.97049539999999,https://www.energy-fuel.com/,energy fuel,0.2374145274792055,139.64585472520795,Glin Thai Bistro,Thai,PRICE_LEVEL_MODERATE
ChIJq36rHd9bwokRmAcsPPnBWPY,Motorino Pizza,"139 Broadway, Brooklyn, NY 11211, USA",4.3,599.0,PRICE_LEVEL_MODERATE,pizza_restaurant,40.710485399999996,-73.9635124,https://www.motorinopizza.com/,motorino pizza,0.054824752817386996,105.44175247182612,Francie,Contemporary,PRICE_LEVEL_MODERATE
ChIJHUdGaVZawokRLeKx6cf6Il4,Lavender Lake,"53 Broadway, Brooklyn, NY 11249, USA",4.4,605.0,PRICE_LEVEL_MODERATE,bar,40.710764499999996,-73.9663357,http://www.lavenderlake.com/,lavender lake,0.20459090522968743,104.00409094770312,Francie,Contemporary,PRICE_LEVEL_MODERATE
ChIJVfgMf99bwokR6ehjTR5avnE,Simple,"346 Bedford Ave, Brooklyn, NY 11249, USA",4.4,475.0,PRICE_LEVEL_MODERATE,restaurant,40.7124405,-73.962761,https://www.simplecafenyc.com/,simple,0.08399111860383526,143.91008881396164,Mesiba,Middle Eastern,PRICE_LEVEL_MODERATE
ChIJwRJFh-xZwokRPUKz_quhEX4,Namkeen,"338 Bedford Ave, Brooklyn, NY 11249, USA",4.5,1118.0,PRICE_LEVEL_MODERATE,chicken_restaurant,40.7128716,-73.9625475,https://eatnamkeen.com/,namkeen,0.1342436098608194,108.65756390139181,Mesiba,Middle Eastern,PRICE_LEVEL_MODERATE
ChIJR6Cc2ttbwokRKCSwX6Dz-08,Sips & Salt,"419 Bedford Ave, Brooklyn, NY 11211, USA",4.8,225.0,PRICE_LEVEL_INEXPENSIVE,restaurant,40.7090398,-73.9639483,https://sipsandsalt.orders2me.com/order-now,sips salt,0.16902291077516832,40.559770892248316,Meadowsweet,Mediterranean Cuisine,PRICE_LEVEL_EXPENSIVE
ChIJ2ext0P5bwokR5aNrm3ircso,Dinastia Ecuadorian Food 2,"394 Bedford Ave, Brooklyn, NY 11249, USA",4.8,104.0,PRICE_LEVEL_INEXPENSIVE,restaurant,40.7107569,-73.963876,https://ecuadorianrestaurant.com/,dinastia ecuadorian food 2,0.07329007208470885,40.30709927915291,Meadowsweet,Mediterranean Cuisine,PRICE_LEVEL_EXPENSIVE
ChIJqZpzcqdZwokRslekUxRXqlw,Sarabeth's Park Avenue South,"381 Park Ave S, New York, NY 10016, USA",4.2,2005.0,PRICE_LEVEL_EXPENSIVE,american_restaurant,40.742512999999995,-73.98436800000002,https://www.sarabethsrestaurants.com/location/sarabeths-park-avenue-south-nomad/,sarabeths park avenue south,0.06873455562773005,109.31265444372269,Upland,Mediterranean Cuisine,PRICE_LEVEL_EXPENSIVE
ChIJOf_8DadZwokR09CnvunhVtA,Hillstone,"378 Park Ave S, New York, NY 10010, USA",4.4,2402.0,PRICE_LEVEL_EXPENSIVE,american_restaurant,40.742658999999996,-73.9848365,https://hillstonerestaurant.com/locations/nyc-parkavenuesouth/,hillstone,0.08252573839639799,109.17474261603601,Upland,Mediterranean Cuisine,PRICE_LEVEL_EXPENSIVE
ChIJB2NotqVZwokR1t6v-dk6wVY,Hill Country Barbecue Market,"30 W 26th St, New York, NY 10010, USA",4.3,3694.0,PRICE_LEVEL_MODERATE,restaurant,40.7442077,-73.99043209999999,https://www.hillcountry.com/,hill country barbecue market,0.07256460306562972,49.2743539693437,Il Fiorista,Contemporary,
ChIJx3HmxaVZwokRUwqj2gIPrjg,Latin American,"29 W 26th St # 1, New York, NY 10010, USA",4.1,310.0,PRICE_LEVEL_INEXPENSIVE,restaurant,40.744432599999996,-73.9899975,https://latinamericanrest.com/,latin american,0.04740998625838945,42.62590013741611,Il Fiorista,Contemporary,
ChIJR6Cc2ttbwokRKCSwX6Dz-08,Sips & Salt,"419 Bedford Ave, Brooklyn, NY 11211, USA",4.8,225.0,PRICE_LEVEL_INEXPENSIVE,restaurant,40.7090398,-73.9639483,https://sipsandsalt.orders2me.com/order-now,sips salt,0.15319937734552191,40.71800622654478,Peter Luger,Steakhouse,PRICE_LEVEL_VERY_EXPENSIVE
ChIJ2ext0P5bwokR5aNrm3ircso,Dinastia Ecuadorian Food 2,"394 Bedford Ave, Brooklyn, NY 11249, USA",4.8,104.0,PRICE_LEVEL_INEXPENSIVE,restaurant,40.7107569,-73.963876,https://ecuadorianrestaurant.com/,dinastia ecuadorian food 2,0.15137331674858046,39.526266832514196,Peter Luger,Steakhouse,PRICE_LEVEL_VERY_EXPENSIVE
ChIJqdPcMIlawokRnjb0RFy_o7s,The Good Fork Pub,"391 Van Brunt St, Brooklyn, NY 11231, USA",4.5,472.0,PRICE_LEVEL_MODERATE,restaurant,40.6759676,-74.01424759999999,http://www.goodfork.com/,the good fork pub,0.40845101842518766,40.63548981574812,Café Kestrel,Contemporary,
ChIJUc6V-fdbwokRg224jhJ_7tI,Wraptor Restaurant Bar,"358 Columbia St, Brooklyn, NY 11231, USA",4.8,201.0,PRICE_LEVEL_MODERATE,restaurant,40.679726099999996,-74.0054138,https://wraptorny.com/,wraptor restaurant bar,0.4872455094637106,37.137544905362894,Café Kestrel,Contemporary,
ChIJK0fVw6dZwokRZuF-vAUC4II,Marta,"29 E 29th St, New York, NY 10016, USA",4.5,1881.0,PRICE_LEVEL_MODERATE,restaurant,40.744476399999996,-73.9845825,https://www.martamanhattan.com/?utm_source=GoogleBusinessProfile&utm_medium=Website&utm_campaign=MapLabs,marta,0.09153121624438927,149.08468783755612,Atoboy,Korean,PRICE_LEVEL_MODERATE
