place_id,google_name,google_address,google_rating,google_user_rating_count,google_price_level,google_primary_type,google_lat,google_lng,google_website,norm_name,distance_km,match_score,matched_to_michelin,matched_to_cuisine,matched_to_price
ChIJv3vgwFZbwokRwP07bRgRYdM,Artesano,"90 Chambers St Unit A, New York, NY 10007, USA",4.6,990.0,PRICE_LEVEL_MODERATE,peruvian_restaurant,40.7144772,-74.0074369,http://artesanorestaurant.com/,artesano,0.028639613939179683,32.55632463272984,Icca,Japanese,
ChIJSYuuSx9awokRyrrOFTGg0GY,Gran Morsi,"22 Warren St, New York, NY 10007, USA",4.4,610.0,PRICE_LEVEL_MODERATE,italian_restaurant,40.714315,-74.007766,http://www.granmorsi.com/,gran morsi,0.007048171322932369,28.015421944124814,Icca,Japanese,
ChIJ-0VhGB9awokRksxfZJBvigE,Serafina Tribeca,"95 W Broadway, New York, NY 10007, USA",4.4,1523.0,PRICE_LEVEL_MODERATE,italian_restaurant,40.7155048,-74.00894509999999,https://www.serafinarestaurant.com/,serafina tribeca,0.039567952894236605,36.525184565269164,Chambers,Contemporary,
ChIJV1VdJB9awokRsucxnGK_eTE,Mudville,"126 Chambers St, New York, NY 10007, USA",4.2,924.0,PRICE_LEVEL_MODERATE,american_restaurant,40.715208499999996,-74.00892329999999,http://www.mudvilleny.com/,mudville,0.05902113674362388,29.531746359076514,Chambers,Contemporary,
ChIJ6e4q1BhawokRWWDyNSiQ4yo,Benares Tribeca Indian Restaurant,"45 Murray St, New York, NY 10007, USA",4.2,2309.0,PRICE_LEVEL_MODERATE,indian_restaurant,40.7141495,-74.0092085,http://www.benaresnyc.com/,benares tribeca indian restaurant,0.14200015972153135,34.29599808334162,Ito,Japanese,
ChIJ87qt5hhawokRfDHmVxCxPJY,CUT by Wolfgang Puck,"99 Church St, New York, NY 10007, USA",4.4,779.0,PRICE_LEVEL_EXPENSIVE,restaurant,40.712855399999995,-74.0093466,https://wolfgangpuck.com/dining/cut-new-york/,cut by wolfgang puck,0.07159484605264715,28.930861847368234,Ito,Japanese,
ChIJnbEEPiBawokRN3BGCWpw2nE,69 Leonard Street,"69 Leonard St, New York, NY 10013, USA",4.5,241.0,PRICE_LEVEL_VERY_EXPENSIVE,japanese_restaurant,40.7176901,-74.0053795,http://www.69leonardstreet.com/,69 leonard street,0.0891745043643548,23.83990594762774,Atera,Contemporary,PRICE_LEVEL_VERY_EXPENSIVE
ChIJ256pFiBawokR-JFcFPAz7Ig,Two Hands,"251 Church St, New York, NY 10013, USA",4.4,1305.0,PRICE_LEVEL_MODERATE,australian_restaurant,40.7177931,-74.0054175,https://www.twohandshospitality.com/,two hands,0.08793384975756914,33.994793802909165,Farra,Contemporary,
ChIJoz4wBFFbwokRpkJ9fa2n4i8,Tara Kitchen Tribeca,"253 Church St, New York, NY 10013, USA",4.6,268.0,PRICE_LEVEL_MODERATE,moroccan_restaurant,40.717868599999996,-74.0053451,http://tarakitchentribeca.com/,tara kitchen tribeca,0.09772584563408743,24.50728985239095,Farra,Contemporary,
ChIJhSLc_R5awokReYEI4dyODxA,Forgione,"30 Hudson St, New York, NY 10013, USA",4.6,763.0,PRICE_LEVEL_EXPENSIVE,american_restaurant,40.7166614,-74.0089507,http://www.marcforgione.com/,forgione,0.15386378818640148,28.78363454176318,Huso,Contemporary,
ChIJRY0QrR9awokRtnCdmU4ijlM,Scalini Fedeli,"165 Duane St, New York, NY 10013, USA",4.8,527.0,PRICE_LEVEL_EXPENSIVE,italian_restaurant,40.717502499999995,-74.0094518,https://scalinifedeli.com/,scalini fedeli,0.09143269767785596,28.17280762786573,Huso,Contemporary,
ChIJv-a4KB5awokR6TLKvHwGqQE,American Cut,"363 Greenwich St, New York, NY 10013, USA",4.5,1025.0,PRICE_LEVEL_VERY_EXPENSIVE,steak_house,40.7191028,-74.0100227,https://www.americancutsteakhouse.com/,american cut,0.08555851799803853,31.723297784023536,Jungsik New York,Korean,PRICE_LEVEL_VERY_EXPENSIVE
ChIJTWkuhfVZwokRS_go-fdp7Vs,Locanda Verde Tribeca,"377 Greenwich St, New York, NY 10013, USA",4.4,2314.0,PRICE_LEVEL_EXPENSIVE,italian_restaurant,40.7198401,-74.00993439999999,http://locandaverdenyc.com/,locanda verde tribeca,0.11999787904565651,35.56002545145212,Tamarind,Indian,PRICE_LEVEL_EXPENSIVE
ChIJu7pIuopZwokRvIsndYhPg4U,Frenchette,"241 W Broadway, New York, NY 10013, USA",4.4,1274.0,PRICE_LEVEL_EXPENSIVE,french_restaurant,40.7196192,-74.0056937,http://frenchettenyc.com/,frenchette,0.04512002435679298,34.19855970771849,One White Street,Contemporary,
ChIJg7lHTvVZwokRh0iWDed8BKw,Walker's,"16 N Moore St, New York, NY 10013, USA",4.5,912.0,PRICE_LEVEL_MODERATE,american_restaurant,40.7196584,-74.00705219999999,http://walkersbarnyc.com/,walkers,0.10255080582657061,30.38939033008115,One White Street,Contemporary,
ChIJU4Y5bNNbwokRu8Y53Q4_PdY,Serafina Financial District,"30 Broad St, New York, NY 10004, USA",4.6,1036.0,PRICE_LEVEL_MODERATE,italian_restaurant,40.7062993,-74.0113669,https://serafinarestaurant.com/,serafina financial district,0.13946446553430014,31.686426413588396,Maison Passerelle,French,
ChIJM3elBidawokRJKPC55N6pQI,Mei Lai Wah,"41 Mott St, New York, NY 10013, USA",4.4,3769.0,PRICE_LEVEL_INEXPENSIVE,chinese_restaurant,40.715172599999995,-73.9989063,,mei lai wah,0.015494938230361896,36.81406074123566,Cha Kee,Asian,PRICE_LEVEL_INEXPENSIVE
ChIJT_0oqlpbwokR6wjYsXzMWL8,Gai Kitchen,"51 Mott St, New York, NY 10013, USA",4.5,622.0,PRICE_LEVEL_INEXPENSIVE,thai_restaurant,40.715472399999996,-73.99877839999999,https://gaikitchen.com/?utm_source=google,gai kitchen,0.02417175870903203,28.429938895491613,Cha Kee,Asian,PRICE_LEVEL_INEXPENSIVE
ChIJdchGBSdawokRrNBainqPr-I,Mei Lai Wah | Wonton Noodle Garden,"23 Pell St, New York, NY 10038, USA",4.3,1945.0,PRICE_LEVEL_INEXPENSIVE,chinese_restaurant,40.7148058,-73.9982129,http://www.wontonnoodlegarden.com/,mei lai wah wonton noodle garden,0.0238792582608901,36.21344890086932,Lei,Chinese,
ChIJA6Cf7iZawokRhqozCeR3RmI,Ping,"22 Mott St, New York, NY 10013, USA",4.3,1749.0,PRICE_LEVEL_MODERATE,dim_sum_restaurant,40.714422,-73.99858400000001,http://pingsnewyork.com/,ping,0.03292227491444165,36.1049327010267,Lei,Chinese,
ChIJ8Vp47SZawokRcgG7mrbDnPQ,Ajisen Ramen,"14 Mott St, New York, NY 10013, USA",4.6,2587.0,PRICE_LEVEL_INEXPENSIVE,ramen_restaurant,40.71414,-73.998606,https://www.ajisenramennyc.com/,ajisen ramen,0.04662728112968897,37.440472626443736,Bridges,Contemporary,
ChIJmZTuWtBbwokRWxbraRwj8xA,Tasty Hand - Pulled Noodles,"1 Doyers St, New York, NY 10013, USA",4.4,1469.0,PRICE_LEVEL_INEXPENSIVE,chinese_noodle_restaurant,40.7142425,-73.9978903,http://www.tastyhandpullednoodlesnyc.com/,tasty hand pulled noodles,0.028087716210711475,36.35294740547146,Bridges,Contemporary,
ChIJPVgzhiZawokRTPAg2SZbPQQ,Tria Bakery Cafe Diner,"22 Chatham Square, New York, NY 10038, USA",4.5,549.0,PRICE_LEVEL_MODERATE,diner,40.713233699999996,-73.9979087,http://www.triadinerbakery.com/,tria bakery cafe diner,0.015280439948426454,27.806634720618884,Dim Sum Go Go,Chinese,PRICE_LEVEL_MODERATE
ChIJyS8VMwBbwokRN0a8ICNWiXI,1915 Lanzhou Hand Pulled Noodles & Dumplings,"76 Mott St, New York, NY 10013, USA",4.6,1371.0,PRICE_LEVEL_MODERATE,chinese_noodle_restaurant,40.716462,-73.99786019999999,https://www.1915lanzhounoodles.com/,1915 lanzhou hand pulled noodles dumplings,0.0776801282498772,35.77783846100147,Yamada,Japanese,
ChIJB9obBCdawokR_I47fRFPBhc,Deluxe Green Bo,"66 Bayard St, New York, NY 10013, USA",4.3,1626.0,PRICE_LEVEL_INEXPENSIVE,chinese_restaurant,40.715617699999996,-73.9980053,https://deluxegreentogo.com/,deluxe green bo,0.07185127882455232,35.637784654105374,Yamada,Japanese,
ChIJ7cmhqPVZwokRcWzLzM5e-5A,Wolfgang's Steakhouse,"409 Greenwich St, New York, NY 10013, USA",4.4,1661.0,PRICE_LEVEL_VERY_EXPENSIVE,steak_house,40.721252,-74.00966439999999,https://wolfgangssteakhouse.net/,wolfgangs steakhouse,0.07395685878219473,36.112517694613665,Muku,Japanese,
ChIJt_msWohZwokRlV0jDszwxFo,Tomiño Taberna Gallega,"192 Grand St, New York, NY 10013, USA",4.6,2260.0,PRICE_LEVEL_MODERATE,spanish_restaurant,40.719509099999996,-73.9968921,http://www.tominonyc.com/,tomio taberna gallega,0.05034117537984829,37.39590589544182,Nyonya,Malaysian,PRICE_LEVEL_MODERATE
ChIJS3EpUohZwokReLFKxxE_zKE,Gelso & Grand,"186 Grand St, New York, NY 10013, USA",4.4,3317.0,PRICE_LEVEL_MODERATE,italian_restaurant,40.719583899999996,-73.99734029999999,https://www.gelsoandgrand.com/,gelso grand,0.0685658019634373,36.17721037643875,Nyonya,Malaysian,PRICE_LEVEL_MODERATE
ChIJoR3RZyhawokRwR91d6hJvvY,Super Taste,"26 Eldridge St, New York, NY 10002, USA",4.6,1537.0,PRICE_LEVEL_INEXPENSIVE,chinese_restaurant,40.715066199999995,-73.9933358,http://www.noodle5888.com/,super taste,0.04671926002023701,37.439368879757154,Corima,Mexican,
ChIJQaJeJexbwokR3tRvK_apU4A,Fong On,"81 Division St, New York, NY 10002, USA",4.6,491.0,PRICE_LEVEL_MODERATE,korean_restaurant,40.7141916,-73.99374759999999,https://www.fongon.net/,fong on,0.0755106559247836,27.003872128902596,Corima,Mexican,
ChIJD-1a9ChawokRnTSi_Et62x4,Kiki's,"130 Division St, New York, NY 10002, USA",4.4,2462.0,PRICE_LEVEL_MODERATE,greek_restaurant,40.7145497,-73.9918591,http://kikisnyc.com/,kikis,0.03846684082202638,36.538397910135686,Shabushabu Mayumon,Japanese,
ChIJCSo-rSlawokRXSVW0IKZ3vQ,Kopitiam,"151 E Broadway, New York, NY 10002, USA",4.2,1559.0,PRICE_LEVEL_INEXPENSIVE,malaysian_restaurant,40.7137994,-73.9909127,https://www.kopitiamnyc.com/,kopitiam,0.10795190362195432,34.70457715653655,Shabushabu Mayumon,Japanese,
ChIJa128pIhZwokRnoPKJguYBCA,Balzem,"202 Mott St, New York, NY 10012, USA",4.6,1582.0,PRICE_LEVEL_MODERATE,mediterranean_restaurant,40.7213239,-73.9954644,https://www.balzem.com/,balzem,0.06956563748766084,37.16521235014807,Thai Diner,Thai,PRICE_LEVEL_MODERATE
ChIJFy95u4hZwokRltxSsUoBp3Q,Fiat Cafe,"203 Mott St, New York, NY 10012, USA",4.4,1235.0,PRICE_LEVEL_MODERATE,italian_restaurant,40.7214311,-73.9956551,https://fiatcafenyc.com/,fiat cafe,0.07970568222745575,33.393531813270535,Thai Diner,Thai,PRICE_LEVEL_MODERATE
ChIJ58HssClawokRefq6VNIOrlY,Metrograph,"7 Ludlow St, New York, NY 10002, USA",4.6,1465.0,PRICE_LEVEL_EXPENSIVE,movie_theater,40.715143,-73.9911467,http://metrograph.com/,metrograph,0.035379677480190434,37.22544387023771,Cervo’s,Spanish,PRICE_LEVEL_EXPENSIVE
ChIJ0XJEBIZZwokR3iPgClK9uEg,Peasant,"194 Elizabeth St, New York, NY 10012, USA",4.4,793.0,PRICE_LEVEL_EXPENSIVE,italian_restaurant,40.721696,-73.994272,http://www.peasantnyc.com/,peasant,0.07759170172472186,28.998899579303338,Wayan,Indonesian,PRICE_LEVEL_EXPENSIVE
ChIJ86M4bHZZwokRdo33ALzbSCE,Kyuramen,"132 Bowery, New York, NY 10013, USA",4.5,1950.0,PRICE_LEVEL_MODERATE,ramen_restaurant,40.718935800000004,-73.9948757,http://www.kyuramen.com/,kyuramen,0.13112392019652636,35.926512957641684,Potluck Club,Chinese,PRICE_LEVEL_MODERATE
ChIJqYLInohZwokRyVt0R66Ws5Q,Cocoron,"16 Delancey St, New York, NY 10002, USA",4.4,1341.0,PRICE_LEVEL_MODERATE,restaurant,40.720301,-73.9930462,https://www.cocoronandgoemon.com/,cocoron,0.09031175424154969,34.3262589491014,Potluck Club,Chinese,PRICE_LEVEL_MODERATE
ChIJqW6yuoxZwokRHcasV7UhqPU,La Sirène Soho,"558 Broome St, New York, NY 10013, USA",4.6,661.0,PRICE_LEVEL_EXPENSIVE,french_restaurant,40.724543,-74.005667,http://www.lasirenenyc.com/,la sirne soho,0.12804595801957497,28.0734485037651,Altro Paradiso,Italian,PRICE_LEVEL_EXPENSIVE
ChIJtVCVH4ZZwokRyfkmpj7Qk5g,Pietro Nolita,"174 Elizabeth St, New York, NY 10012, USA",4.4,1365.0,PRICE_LEVEL_MODERATE,cocktail_bar,40.7210232,-73.99473449999999,http://pietronolita.com/,pietro nolita,0.049572713197901325,35.05512744162518,Ma•dé,South East Asian,
ChIJx-dP1L9ZwokRUJWDOIcgTG4,Wayla,"100 Forsyth St, New York, NY 10002, USA",4.5,1132.0,PRICE_LEVEL_MODERATE,thai_restaurant,40.7182852,-73.9926038,https://www.waylanyc.com/,wayla,0.10034274662631942,32.61588704048417,Comal,Mexican,
ChIJRUnhkElZwokRBRSJxl_Up68,Vanessa's Dumpling House,"118A Eldridge St, New York, NY 10002, USA",4.3,858.0,PRICE_LEVEL_INEXPENSIVE,restaurant,40.7183133,-73.99175610000002,https://vanessas.com/,vanessas dumpling house,0.09635726222755873,28.923712853269294,Comal,Mexican,
ChIJbb-1BilawokRU_jdJ4pt7a8,Carol's Bun,"139 E Broadway, New York, NY 10002, USA",4.7,231.0,PRICE_LEVEL_MODERATE,chinese_restaurant,40.713799699999996,-73.9914345,http://www.carolsbun.com/?utm_source=gmb&utm_medium=website,carols bun,0.0982422621101994,24.631092854677604,Tolo,Chinese,
ChIJWQs914ZZwokRl55uI6owqC4,Dudleys,"85 Orchard St, New York, NY 10002, USA",4.4,1809.0,PRICE_LEVEL_MODERATE,restaurant,40.718068599999995,-73.9904389,https://www.dudleysnyc.com/,dudleys,0.032199624780325425,36.61360450263609,Dirt Candy,Vegetarian,PRICE_LEVEL_MODERATE
ChIJeU2xa4dZwokRdgTy1h9-7YA,Cafe Katja,"79 Orchard St, New York, NY 10002, USA",4.7,900.0,PRICE_LEVEL_MODERATE,austrian_restaurant,40.717723899999996,-73.99059559999999,http://www.cafekatja.com/,cafe katja,0.017843082346256325,32.28588301184492,Dirt Candy,Vegetarian,PRICE_LEVEL_MODERATE
ChIJ3RB9uI1ZwokRxCJXW-HpYZI,The Dutch,"131 Sullivan St, New York, NY 10012, USA",4.3,2413.0,PRICE_LEVEL_EXPENSIVE,american_restaurant,40.7265328,-74.0021536,http://www.thedutchnyc.com/,the dutch,0.03909930737629783,36.03080831148443,Raoul's,French,PRICE_LEVEL_EXPENSIVE
ChIJS7q7to1ZwokRWbN1t_AXYME,Blue Ribbon Sushi,"119 Sullivan St, New York, NY 10012, USA",4.6,1860.0,PRICE_LEVEL_MODERATE,sushi_restaurant,40.726092,-74.00240819999999,https://www.blueribbonsushi119.com/,blue ribbon sushi,0.06497384575585063,37.22031385092979,Pinch Chinese,Chinese,PRICE_LEVEL_MODERATE
ChIJ49OYkC9ZwokR0i9BKBQgmRQ,JQ Milk Tea & Fried Chicken,"147 Sullivan St, New York, NY 10012, USA",4.9,240.0,PRICE_LEVEL_MODERATE,tea_house,40.7270062,-74.00167909999999,https://teaart.uorder.io/,jq milk tea fried chicken,0.06274075474252706,26.147110943089675,Pinch Chinese,Chinese,PRICE_LEVEL_MODERATE
ChIJa8NEw_JZwokRkUBcmHh8xOg,Westville Hudson,"333 Hudson St, New York, NY 10013, USA",4.5,1610.0,PRICE_LEVEL_MODERATE,american_restaurant,40.727247,-74.007539,https://westville.com/locations/westville-hudson/,westville hudson,0.015831543026003734,37.310021483687954,César,Contemporary,
ChIJZ75-yI1ZwokR82kXXJvniwo,Il Corallo Trattoria,"176 Prince St, New York, NY 10012, USA",4.5,2008.0,PRICE_LEVEL_INEXPENSIVE,italian_restaurant,40.7261528,-74.0018817,http://www.ilcorallotrattoria.com/,il corallo trattoria,0.05845021745288885,36.798597390565334,Sushi Ikumi,Japanese,
ChIJfe6ZYKFZwokR_mHm7GNoAxc,La Pecora Bianca SoHo,"54 Prince St, New York, NY 10012, USA",4.8,5709.0,PRICE_LEVEL_MODERATE,italian_restaurant,40.723459999999996,-73.9963118,https://www.lapecorabianca.com/,la pecora bianca soho,0.11862919653211917,37.57644964161457,Torrisi,Contemporary,
ChIJRcCC14VZwokRvJiDo29-IGM,Freemans,"Freeman Alley, New York, NY 10002, USA",4.4,2344.0,PRICE_LEVEL_MODERATE,american_restaurant,40.7220379,-73.9924233,http://www.freemansrestaurant.com/,freemans,0.05559861013617205,36.33281667836594,Forsythia,Italian,
ChIJPQOh8YVZwokRE2WsbZI4tOk,Café Habana,"17 Prince St, New York, NY 10012, USA",4.6,4724.0,PRICE_LEVEL_MODERATE,cuban_restaurant,40.7229278,-73.9941778,http://www.cafehabana.com/,caf habana,0.14862973821448214,36.21644314142621,Forsythia,Italian,
ChIJZ6cVB49ZwokRtaudHruZUaQ,Blue Ribbon Sushi Izakaya,"187 Orchard St, New York, NY 10002, USA",4.4,930.0,PRICE_LEVEL_MODERATE,japanese_restaurant,40.722135,-73.988438,https://www.blueribbonsushiizakaya.com/,blue ribbon sushi izakaya,0.050616226144314415,30.69260528626823,Russ & Daughters Cafe,American,PRICE_LEVEL_MODERATE
ChIJPf9kouVZwokRyCMEj0VQ928,Pasta Lab NYC,"199 Orchard St, New York, NY 10002, USA",4.8,306.0,PRICE_LEVEL_MODERATE,food_store,40.7224569,-73.9882028,https://pastalabnyc.com/?utm_source=google,pasta lab nyc,0.016587648763986333,26.860948214832163,Russ & Daughters Cafe,American,PRICE_LEVEL_MODERATE
ChIJe_ZBhY1ZwokRGAEwGLWYpA8,Charlie Bird,"5 King St, New York, NY 10012, USA",4.4,1083.0,PRICE_LEVEL_EXPENSIVE,italian_restaurant,40.7278191,-74.0028447,https://www.charliebirdnyc.com/,charlie bird,0.05875174398490296,32.12497907218116,King,Mediterranean Cuisine,PRICE_LEVEL_EXPENSIVE
ChIJo4971K-kj4AReyDUlK6mSI0,Left Bank Menlo Park,"635 Santa Cruz Ave, Menlo Park, CA 94025, USA",4.2,1205.0,PRICE_LEVEL_EXPENSIVE,french_restaurant,37.452656,-122.18331719999999,https://www.leftbank.com/,left bank menlo park,0.2903658666836551,29.565609599796137,New,Korean Contemporary,
ChIJYfJCcSqlj4ARm2v5HkfMSv0,Camper,"898 Santa Cruz Ave, Menlo Park, CA 94025, USA",4.4,470.0,PRICE_LEVEL_MODERATE,californian_restaurant,37.449995799999996,-122.1861014,http://campermp.com/,camper,0.10078012219891269,25.490638533613048,New,Korean Contemporary,
ChIJWYmkYQm5woARzLqtLqK3CdQ,ORGANICO,"701 N Western Ave, Los Angeles, CA 90029, USA",4.5,454.0,PRICE_LEVEL_MODERATE,restaurant,34.0836581,-118.3093237,https://www.organico.co/,organico,0.08071348009183044,26.071438238898033,New,Korean Contemporary,
ChIJg7cNIYyAhYAR8D4ml1oItTg,Roxanne Cafe,"570 Powell St, San Francisco, CA 94108, USA",4.3,2009.0,PRICE_LEVEL_MODERATE,american_restaurant,37.790136499999996,-122.40865090000001,http://www.roxannecafesf.com/,roxanne cafe,0.04025614858853883,36.016926216937534,New,Korean Contemporary,
ChIJPSVdmo6AhYARUg2U26c-XC0,Golden Gate Tap Room,"449 Powell St, San Francisco, CA 94108, USA",4.2,3115.0,PRICE_LEVEL_MODERATE,sports_bar,37.7889738,-122.40868489999998,http://www.ggtaproom.com/,golden gate tap room,0.14571089922574382,34.25146920929107,New,Korean Contemporary,
ChIJZ0UuanRuhlQRab4hMds18Uo,Seasons in the Park,"W 33rd Ave, Vancouver, BC V5Y 2M4, Canada",4.4,3677.0,PRICE_LEVEL_EXPENSIVE,fine_dining_restaurant,49.2420056,-123.11185619999998,http://vancouverdine.com/seasons-park,seasons in the park,0.525718990363565,30.691372115637222,New,Korean Contemporary,
ChIJV1fttPdzhlQRTvWMaI4H8UQ,East is East,"4433 Main St, Vancouver, BC V5V 3R2, Canada",4.7,7184.0,PRICE_LEVEL_MODERATE,mediterranean_restaurant,49.245424,-123.10147839999999,http://www.eastiseast.ca/,east is east,0.6521413490446406,30.674303811464313,New,Korean Contemporary,
ChIJdfD8moVZwokRO6vxjXAtoWs,Tacombi,"267 Elizabeth St, New York, NY 10012, USA",4.4,2552.0,PRICE_LEVEL_MODERATE,mexican_restaurant,40.72402290000001,-73.9938545,https://www.tacombi.com/?utm_source=google&utm_medium=gbp&utm_campaign=profile,tacombi,0.09497120254831248,35.86034556942025,Raf's,European,
ChIJn8fJ_YRZwokRYiSB8y4Qneg,Bowery Meat Company,"9 E 1st St, New York, NY 10003, USA",4.5,1274.0,PRICE_LEVEL_EXPENSIVE,restaurant,40.7245665,-73.9918409,http://www.bowerymeatcompany.com/,bowery meat company,0.10997740220547207,33.92027117353434,Raf's,European,
ChIJgc7fPIVZwokRQMnqTxTf_Qk,Fish Cheeks,"55 Bond St, New York, NY 10012, USA",4.7,5131.0,PRICE_LEVEL_MODERATE,thai_restaurant,40.725788099999995,-73.99263859999999,https://www.fishcheeksnyc.com/,fish cheeks,0.12320567635543901,37.02153188373473,Torien,Japanese,PRICE_LEVEL_MODERATE
ChIJ53TP75FZwokRSlw1VwT_zHM,Carroll Place,"157 Bleecker St Suite 1, New York, NY 10012, USA",4.3,1480.0,PRICE_LEVEL_MODERATE,italian_restaurant,40.7286426,-73.9997594,https://www.carrollplacenyc.com/,carroll place,0.10181456612498031,35.078225206500235,Lord's,English,
ChIJ4WXDA45ZwokRiYUKlIucxxU,Tomo21 Sushi,"172 Thompson St, New York, NY 10012, USA",4.5,1192.0,PRICE_LEVEL_MODERATE,sushi_restaurant,40.7276662,-74.0001319,https://order.mealkeyway.com/merchant/65544c45446839717849786b32324243744b4f4437513d3d/main,tomo21 sushi,0.049397557839599746,33.8272293059248,Lord's,English,
ChIJdwPoqoZZwokRMwZGnyeXlF8,Mr. Taka Ramen,"170 Allen St, New York, NY 10002, USA",4.5,1510.0,PRICE_LEVEL_MODERATE,ramen_restaurant,40.721241,-73.98889799999999,https://www.instagram.com/mrtakaramen/,mr taka ramen,0.048308151354464306,36.92030218374643,8282,Korean,
ChIJx83YoyJZwokRQmzSXiiCAk8,Top Thai 55 Carmine,"55 Carmine St, New York, NY 10014, USA",4.7,4950.0,PRICE_LEVEL_MODERATE,thai_restaurant,40.7299486,-74.0042366,https://www.topthaivintage.com/,top thai 55 carmine,0.0814462994304405,37.522644406834715,Laliko,Central Asian,PRICE_LEVEL_MODERATE
ChIJh-s4YNNZwokRKuwXrP5FHqY,Jajaja Mexicana,"63 Carmine St, New York, NY 10014, USA",4.6,1753.0,PRICE_LEVEL_MODERATE,vegan_restaurant,40.7298848,-74.00460389999999,https://www.jajajamexicana.com/,jajaja mexicana,0.05626124433704869,37.324865067955415,Laliko,Central Asian,PRICE_LEVEL_MODERATE
ChIJW0eidCpawokR5A505xH06l8,Saluggi's East,"399 Grand St, New York, NY 10002, USA",4.4,1068.0,PRICE_LEVEL_MODERATE,restaurant,40.715899,-73.98733299999999,https://east.saluggis.com/,saluggis east,0.24128481939493016,29.784582167260837,Ernesto's,Spanish,
ChIJOQXR4U1bwokRfhkCnTG8Obo,Manousheh Grand,"403 Grand St, New York, NY 10002, USA",4.6,535.0,PRICE_LEVEL_INEXPENSIVE,lebanese_restaurant,40.715841399999995,-73.98735599999999,https://www.manousheh.com/,manousheh grand,0.23783772094233827,25.495947348691942,Ernesto's,Spanish,
ChIJUw68EZJZwokRJ15RD_T4OTw,Dante NYC,"79-81 MacDougal St, New York, NY 10012, USA",4.5,2713.0,PRICE_LEVEL_EXPENSIVE,italian_restaurant,40.7288417,-74.0016444,http://www.dante-nyc.com/,dante nyc,0.01641958358518378,37.30296499697779,Dame,Seafood,
ChIJUw68EZJZwokRE9JElRWVp6c,Mermaid Oyster Bar,"89 MacDougal St, New York, NY 10012, USA",4.6,1199.0,PRICE_LEVEL_MODERATE,oyster_bar_restaurant,40.7290436,-74.001539,http://www.themermaidnyc.com/,mermaid oyster bar,0.011220587265220176,34.85535295281736,Dame,Seafood,
ChIJM1zN2YRZwokRqZiwEUrCAaQ,Gemma,"335 Bowery, New York, NY 10003, USA",4.3,1093.0,PRICE_LEVEL_MODERATE,italian_restaurant,40.7261666,-73.99166129999999,http://www.theboweryhotel.com/dining/gemma,gemma,0.11453375336337596,31.05559495963949,C as in Charlie,Fusion,PRICE_LEVEL_MODERATE
ChIJ4wBp3jdawokRZf_Uh0IhaXY,Clark's,"80 Clark St, Brooklyn, NY 11201, USA",4.4,1781.0,PRICE_LEVEL_MODERATE,diner,40.6974361,-73.9932444,https://www.clarksdiner.com/,clarks,0.29275942821387174,33.48688686143354,Inga's Bar,American,PRICE_LEVEL_MODERATE
ChIJAzOhuTdawokRE9fIT1EpNEo,Kogane,"76 Henry St, Brooklyn, NY 11201, USA",4.4,1046.0,PRICE_LEVEL_MODERATE,ramen_restaurant,40.6986157,-73.99272119999999,https://koganebk.com/?utm_source=google,kogane,0.18122835092263243,30.28525978892841,Inga's Bar,American,PRICE_LEVEL_MODERATE
ChIJMa8x7oNZwokR3k3Elyw0VC8,Le French Diner,"188 Orchard St, New York, NY 10002, USA",4.5,531.0,PRICE_LEVEL_MODERATE,french_restaurant,40.7220162,-73.9880246,https://www.facebook.com/lefrenchdiner,le french diner,0.05795056884295636,27.114593173884522,Una Pizza Napoletana,Pizza,PRICE_LEVEL_MODERATE
ChIJZdHB7oRZwokRLygeCAedjWo,Rosie's,"29 E 2nd St #5e, New York, NY 10003, USA",4.5,1876.0,PRICE_LEVEL_MODERATE,mexican_restaurant,40.724924099999996,-73.9906202,http://rosiesnyc.com/,rosies,0.07175430880360906,36.638948294356695,Kabawa,Caribbean,
ChIJqzkICohZwokR456MkSkZnLU,The Bowery Hotel,"335 Bowery, New York, NY 10003, USA",4.5,1666.0,PRICE_LEVEL_EXPENSIVE,hotel,40.7260114,-73.9916125,http://www.theboweryhotel.com/,the bowery hotel,0.1276848436839788,35.967781875792255,Kabawa,Caribbean,
ChIJt_loX5JZwokRZkK8Zu2O_X4,Jack's Wife Freda,"50 Carmine St, New York, NY 10014, USA",4.4,2126.0,PRICE_LEVEL_MODERATE,mediterranean_restaurant,40.729816799999995,-74.00351599999999,https://jackswifefreda.com/,jacks wife freda,0.07450188499351378,36.10597738007783,Crevette,Seafood,
ChIJv8mfNetZwokRB7K2jVnQTVg,Aria Wine Bar,"16 Bedford St, New York, NY 10014, USA",4.3,681.0,PRICE_LEVEL_MODERATE,italian_restaurant,40.729147399999995,-74.00345469999999,https://ariawinebar.com/,aria wine bar,0.08555948523361273,27.283286177196647,Crevette,Seafood,
ChIJXcohm1dZwokR-w-Sv7cYZl8,Son del North,"177 Orchard St, New York, NY 10002, USA",4.3,501.0,PRICE_LEVEL_INEXPENSIVE,burrito_restaurant,40.721809799999996,-73.9885376,https://sondelnorth.com/sondelnorth?utm_source=google,son del north,0.05519718412931159,25.84763379044826,Sami & Susu,Mediterranean Cuisine,PRICE_LEVEL_INEXPENSIVE
ChIJYzdjboRZwokR-WVAArYMQmk,Fools Gold NYC,"145 E Houston St, New York, NY 10002, USA",4.5,1188.0,PRICE_LEVEL_MODERATE,cocktail_bar,40.723055699999996,-73.9897835,http://www.foolsgoldnyc.com/,fools gold nyc,0.09937065482541454,33.18755214209503,MayRee,Thai,PRICE_LEVEL_MODERATE
ChIJw9mreINZwokREKVy9DT1lro,divya's kitchen,"25 1st Ave, New York, NY 10003, USA",4.6,768.0,PRICE_LEVEL_MODERATE,vegetarian_restaurant,40.7237699,-73.9884906,https://divyas.com/divyas-kitchen/,divyas kitchen,0.062335939311518686,29.931968728261776,MayRee,Thai,PRICE_LEVEL_MODERATE
ChIJIUM_NYVZwokRFOQZXDCXMSE,Vic's,"31 Great Jones St, New York, NY 10012, USA",4.6,1202.0,PRICE_LEVEL_MODERATE,italian_restaurant,40.726864299999995,-73.9932413,http://vicsnewyork.com/,vics,0.07276934064355932,34.146767912277284,Atla,Mexican,PRICE_LEVEL_MODERATE
ChIJeRqd0JpZwokRG4UKjO1bU4I,Swift Hibernian Lounge,"34 E 4th St, New York, NY 10003, USA",4.5,1038.0,PRICE_LEVEL_MODERATE,irish_pub,40.727224199999995,-73.9923192,http://www.swiftnycbar.com/,swift hibernian lounge,0.13900794915712172,31.21190461011454,Atla,Mexican,PRICE_LEVEL_MODERATE
ChIJpZm095JZwokRGez02CCWhpE,Berimbau Brazilian Table - West Village,"43 Carmine St, New York, NY 10014, USA",4.6,1461.0,PRICE_LEVEL_MODERATE,brazilian_restaurant,40.7301198,-74.0036057,https://www.berimbaunyc.com/,berimbau brazilian table west village,0.035558937968597354,37.18329274437683,Nami Nori,Japanese,
ChIJ4wpS8ZJZwokRjKCNyp3PGp8,The Grey Dog - West Village,"49 Carmine St, New York, NY 10014, USA",4.5,1460.0,PRICE_LEVEL_MODERATE,american_restaurant,40.7300117,-74.0038879,https://www.thegreydog.com/location/the-grey-dog-west-village/,the grey dog west village,0.06212960012508717,36.35444479849895,Nami Nori,Japanese,
ChIJ01Bg4shZwokRdYhhALtulFc,Gazab,"179 Essex St, New York, NY 10002, USA",4.5,1239.0,PRICE_LEVEL_MODERATE,indian_restaurant,40.7219227,-73.9866681,https://gazabnyc.com/?utm_source=google,gazab,0.07281680624111535,34.016198325106615,Katz's,Deli,PRICE_LEVEL_MODERATE
ChIJlQFG6INZwokRRiBMK6vm7xw,Taverna Di Bacco,"175 Ludlow St, New York, NY 10002, USA",4.7,554.0,PRICE_LEVEL_MODERATE,italian_restaurant,40.7218614,-73.9875337,http://www.tavernadibacco.com/,taverna di bacco,0.04225159122898381,28.532980905252195,Katz's,Deli,PRICE_LEVEL_MODERATE
ChIJk-Ctm4NZwokRpuORmfL1xKk,Cafe Himalaya,"78 E 1st St, New York, NY 10009, USA",4.7,926.0,PRICE_LEVEL_INEXPENSIVE,tibetan_restaurant,40.7231862,-73.9880101,http://cafehimalaya.weebly.com/,cafe himalaya,0.05360308460784471,32.116762984705865,Bungalow,Indian,
ChIJd-6kjIFZwokRDLpd8raiX14,Omar's Kitchen and Rum Bar,"29A Clinton St, New York, NY 10002, USA",4.3,863.0,PRICE_LEVEL_MODERATE,caribbean_restaurant,40.7203841,-73.9845338,http://www.omarskitchen.com/,omars kitchen and rum bar,0.11057163438042147,28.803140387434944,63 Clinton,Contemporary,
ChIJaXu7poFZwokR4Yv0pNDek3s,Ginger and Lemongrass,"153 Rivington St, New York, NY 10002, USA",4.5,694.0,PRICE_LEVEL_MODERATE,vietnamese_restaurant,40.7191656,-73.9856424,http://gingerandlemongrass.com/,ginger and lemongrass,0.05644466587631849,28.76266400948418,63 Clinton,Contemporary,
ChIJTX6hP5NZwokR93muGu7l4X0,Little Owl,"90 Bedford St, New York, NY 10014, USA",4.5,1407.0,PRICE_LEVEL_EXPENSIVE,american_restaurant,40.732375399999995,-74.0052681,https://www.thelittleowlnyc.com/,little owl,0.11943109906654055,35.136826811201516,The Commerce Inn,American,
ChIJHWNcKe1ZwokRzBgOs-cjQSU,Hudson Clearwater,"447 Hudson St, New York, NY 10014, USA",4.4,1197.0,PRICE_LEVEL_MODERATE,american_restaurant,40.7311111,-74.0069444,http://www.hudsonclearwater.com/,hudson clearwater,0.10780673089599152,32.6763192292481,The Commerce Inn,American,
ChIJrXLBQ8hZwokRQoXlUVYmwZ4,Toriya,"178 Stanton St, New York, NY 10002, USA",4.6,216.0,PRICE_LEVEL_MODERATE,japanese_restaurant,40.720171,-73.9839775,http://www.toriyanyc.com/,toriya,0.06470758964990343,24.38350892420116,Ivan Ramen,Japanese,PRICE_LEVEL_MODERATE
ChIJw_xat5NZwokRpW-BtDpdsPs,Palma,"28 Cornelia St, New York, NY 10014, USA",4.6,1157.0,PRICE_LEVEL_EXPENSIVE,italian_restaurant,40.7312011,-74.0023412,https://www.palmanyc.com/,palma,0.03893284925565843,34.1028058089321,Le Gigot,French,PRICE_LEVEL_EXPENSIVE
ChIJKzk6b4JZwokRJFfnxFnxV4Q,Il Posto Accanto,"190 E 2nd St, New York, NY 10009, USA",4.6,592.0,PRICE_LEVEL_MODERATE,italian_restaurant,40.7224092,-73.9840517,http://ilpostoaccantonyc.com/,il posto accanto,0.13938536193523587,27.247375656777173,Little Myanmar,Burmese,PRICE_LEVEL_MODERATE
ChIJg_qA-IJZwokRywpUqo35cz8,Mary O's,"32 Avenue A, New York, NY 10009, USA",4.4,472.0,PRICE_LEVEL_MODERATE,irish_pub,40.723282999999995,-73.985222,https://maryos.nyc/,mary os,0.04133780484014066,26.22394634191831,Little Myanmar,Burmese,PRICE_LEVEL_MODERATE
ChIJ0cr5SZFZwokRqThsmC5Caes,Babbo,"110 Waverly Pl, New York, NY 10011, USA",4.3,1781.0,PRICE_LEVEL_VERY_EXPENSIVE,restaurant,40.732296,-73.9992785,https://babbonyc.com/?utm_source=GoogleBusinessProfile&utm_medium=Website&utm_campaign=MapLabs,babbo,0.04300642043842416,35.98392295473891,Family Meal at Blue Hill,American,PRICE_LEVEL_VERY_EXPENSIVE
ChIJLefnVOtZwokRN2j6XKEj8EU,Cowgirl,"519 Hudson St, New York, NY 10014, USA",4.2,1559.0,PRICE_LEVEL_MODERATE,southwestern_us_restaurant,40.7337997,-74.0065517,http://www.cowgirlnyc.com/,cowgirl,0.11206713540547042,34.65519437513436,Jeju Noodle Bar,Korean,PRICE_LEVEL_MODERATE
ChIJ75tik-xZwokRq4QSrdKjblg,Malatesta Trattoria,"649 Washington St, New York, NY 10014, USA",4.4,1118.0,PRICE_LEVEL_MODERATE,italian_restaurant,40.7328622,-74.008394,http://malatestanyc.com/,malatesta trattoria,0.08977805497061125,32.10266334035266,Jeju Noodle Bar,Korean,PRICE_LEVEL_MODERATE
ChIJEwHZcZNZwokR810IgyQhoZM,Buvette,"42 Grove St, New York, NY 10014, USA",4.4,4264.0,PRICE_LEVEL_EXPENSIVE,french_restaurant,40.732625899999995,-74.00432839999999,http://www.ilovebuvette.com/,buvette,0.029458652903915302,36.64649616515302,I Sodi,Italian,PRICE_LEVEL_EXPENSIVE
ChIJvTazNfJZwokRZVydqcERhAg,Fiaschetteria “Pistoia”,"114 Christopher St, New York, NY 10014, USA",4.4,649.0,PRICE_LEVEL_MODERATE,italian_restaurant,40.7330884,-74.0053526,http://www.fiaschetteriapistoia.com/,fiaschetteria pistoia,0.022307916371896892,28.22230500353724,Red Paper Clip,Contemporary,
ChIJq58thpNZwokRcsvqjnNzYcc,Boucherie West Village,"99 7th Ave S, New York, NY 10014, USA",4.8,9234.0,PRICE_LEVEL_EXPENSIVE,french_restaurant,40.733047,-74.0028772,https://www.boucherieus.com/west-village-menus/,boucherie west village,0.0671381854256764,38.19434177489188,Via Carota,Italian,PRICE_LEVEL_EXPENSIVE
ChIJF9qFgYJZwokR9a5fyk309_0,Gnoccheria East Village,"234 E 4th St, New York, NY 10009, USA",4.5,910.0,PRICE_LEVEL_MODERATE,italian_restaurant,40.7233893,-73.9830338,https://www.gnoccherianyc.com/,gnoccheria east village,0.0608439297039846,30.869872843552187,Secchu Yokota,Japanese,
ChIJxScDgHhZwokRv93uQkstoQ8,POST,"217 E 3rd St, New York, NY 10009, USA",4.5,464.0,PRICE_LEVEL_MODERATE,american_restaurant,40.7225246,-73.9821975,http://www.post-nyc.com/,post,0.08579801014092815,26.11042387830886,Secchu Yokota,Japanese,
ChIJ8eEu0JxZwokRNFpDI_HBFmc,Raku,"342 E 6th St, New York, NY 10003, USA",4.5,1396.0,PRICE_LEVEL_MODERATE,japanese_restaurant,40.726489099999995,-73.9866759,http://www.rakunyc.com/,raku,0.05482116002801369,35.802146079663835,Adda,Indian,
ChIJ-TjK0ZxZwokRY05GdFO1_RI,upstate craft beer & oyster bar,"95 1st Ave, New York, NY 10003, USA",4.6,989.0,PRICE_LEVEL_MODERATE,oyster_bar_restaurant,40.726354,-73.98655,http://upstatenyc.com/,upstate craft beer oyster bar,0.06190893330718969,32.14709280031372,Adda,Indian,
ChIJ_RUJvZZZwokRNUEv3K4nSik,OLIO E PIÙ,"3 Greenwich Ave, New York, NY 10014, USA",4.7,10755.0,PRICE_LEVEL_MODERATE,restaurant,40.7338208,-73.99979309999999,https://www.olioepiu.com/,olio e pi,0.06826886253171663,37.680773649619404,Shmoné,Israeli,
ChIJye1nGZRZwokRpt8fmbCxNLE,Petite Boucherie,"First Floor, 14 Christopher St, New York, NY 10014, USA",4.7,2045.0,PRICE_LEVEL_MODERATE,french_restaurant,40.733870599999996,-74.0004319,https://www.boucherieus.com/,petite boucherie,0.12091044096889837,37.04907470837322,Shmoné,Israeli,
ChIJAQCweZxZwokRmyqYmYM3Ze8,Mountain House East Village,"23 St Marks Pl, New York, NY 10003, USA",4.6,2198.0,PRICE_LEVEL_MODERATE,chinese_restaurant,40.7291176,-73.9885834,https://www.szechuanmountainhouse.com/,mountain house east village,0.013234717810714359,37.841183386271425,CheLi,Chinese,PRICE_LEVEL_MODERATE
ChIJY_AGiJtZwokRMkVfS6vDfw8,The Bao,"13 St Marks Pl, New York, NY 10003, USA",4.3,1341.0,PRICE_LEVEL_MODERATE,chinese_restaurant,40.7294074,-73.9889097,http://www.thebaony.com/,the bao,0.029680714248586468,34.55383142901696,CheLi,Chinese,PRICE_LEVEL_MODERATE
ChIJ5QOQdQtZwokRSy16jOl97Uc,AURA Tapas & Cocktail Bar,"111 1st Ave, New York, NY 10003, USA",4.9,352.0,PRICE_LEVEL_MODERATE,cocktail_bar,40.726950599999995,-73.9860913,http://www.aurabarandkitchen.com/,aura tapas cocktail bar,0.04180555208521105,27.518333374977466,Ariari,Korean,PRICE_LEVEL_MODERATE
ChIJd3-uGZ1ZwokR2fCvxWdgWqY,The Grafton,"126 1st Ave, New York, NY 10009, USA",4.4,445.0,PRICE_LEVEL_MODERATE,irish_pub,40.7272259,-73.98527519999999,http://www.thegraftonnyc.com/,the grafton,0.0471256486103055,25.884492216676332,Ariari,Korean,PRICE_LEVEL_MODERATE
ChIJg3MwTp1ZwokRR09egp9Xo-c,Kazuza,"107 Avenue A, New York, NY 10009, USA",4.6,1703.0,PRICE_LEVEL_MODERATE,hookah_bar,40.725936999999995,-73.983789,http://www.kazuzalounge.com/,kazuza,0.03935763964743527,37.52770832423078,Soda Club,Vegan,
ChIJKU1MNJ1ZwokRQ7eiWK511vI,Death & Co East Village,"433 E 6th St, New York, NY 10009, USA",4.5,2074.0,PRICE_LEVEL_EXPENSIVE,cocktail_bar,40.725919999999995,-73.9846452,http://www.deathandcompany.com/,death co east village,0.05550422590142062,36.833949289182954,Soda Club,Vegan,
ChIJd44UPXhZwokRMNBKRybimqY,Horus Cafe,"93 Avenue B, New York, NY 10009, USA",4.3,714.0,PRICE_LEVEL_MODERATE,mediterranean_restaurant,40.7245,-73.9814,http://www.horuscafe.com/,horus cafe,0.13210896830384222,27.054692380353895,Tuome,Fusion,PRICE_LEVEL_MODERATE
ChIJL5F0BJ1ZwokRGlf-5766UVM,Taqueria St. Marks Place,"79 St Marks Pl, New York, NY 10003, USA",4.6,1000.0,PRICE_LEVEL_INEXPENSIVE,mexican_restaurant,40.727891299999996,-73.9855548,http://www.facebook.com/taqueria.stmarksplace,taqueria st marks place,0.0543582800491425,32.34770063941029,Nudibranch,Contemporary,
ChIJv-yiA51ZwokRfkf4YagKlPs,La Palapa,"77 St Marks Pl, New York, NY 10003, USA",4.2,787.0,PRICE_LEVEL_MODERATE,mexican_restaurant,40.727868,-73.9856629,https://www.lapalapa.com/,la palapa,0.05006583264855679,28.26921000821732,Nudibranch,Contemporary,
ChIJ8dMooZZZwokR-jc4VF7m2Bs,Omakase Room by Mitsu,"| Ground Floor, 14 Christopher St Ground Floor, New York, NY 10014, USA",4.7,314.0,PRICE_LEVEL_VERY_EXPENSIVE,japanese_restaurant,40.733832,-74.000429,https://www.omakaseroom.com/,omakase room by mitsu,0.0907820667166669,25.5506151994,Moody Tongue Sushi,Sushi,
ChIJIQ-tSJ1ZwokRnzgbXzA6coI,Giano,"126 E 7th St, New York, NY 10009, USA",4.7,561.0,PRICE_LEVEL_MODERATE,italian_restaurant,40.726212200000006,-73.98416,https://www.gianonyc.com/,giano,0.02431594277818899,28.81820868666173,Ruffian,Contemporary,PRICE_LEVEL_MODERATE
ChIJiSTpMuZZwokRkqSExdmSAyg,Crispiano,"130 St Marks Pl, New York, NY 10009, USA",4.6,300.0,PRICE_LEVEL_MODERATE,italian_restaurant,40.726772499999996,-73.98358209999999,http://crispianopizzabar.com/,crispiano,0.05830674595573202,25.300319048531215,Ruffian,Contemporary,PRICE_LEVEL_MODERATE
ChIJZyJMS5xZwokR6LR59bMP6s8,Hi-Collar,"231 E 9th St, New York, NY 10003, USA",4.4,1231.0,PRICE_LEVEL_MODERATE,japanese_restaurant,40.7295831,-73.9878324,http://www.hi-collar.com/,hicollar,0.00929197939736026,34.19849624723168,Sobaya,Japanese,PRICE_LEVEL_MODERATE
ChIJbxGBQJxZwokRyKepqIke4x8,Temakase Hand Roll Bar - 2nd Ave,"157 2nd Ave, New York, NY 10003, USA",4.5,1108.0,PRICE_LEVEL_MODERATE,sushi_restaurant,40.729741399999995,-73.9872113,https://temakasenyc.com/temakasehandrollbar-2ndave?utm_source=google,temakase hand roll bar 2nd ave,0.06307171006892033,32.82313947917295,Sobaya,Japanese,PRICE_LEVEL_MODERATE
ChIJfS6RWp1ZwokRHRCIiP-IApE,Yuca Bar & Restaurant,"111 Avenue A, New York, NY 10009, USA",4.5,3416.0,PRICE_LEVEL_MODERATE,latin_american_restaurant,40.7262059,-73.9836212,http://yucabarnyc.com/,yuca bar restaurant,0.02582235030283272,37.19013179636601,Miss Lily’s,Jamaican,PRICE_LEVEL_MODERATE
ChIJcXq9AZxZwokRZ56WZuGnZkg,The Smith,"55 3rd Ave, New York, NY 10003, USA",4.4,2873.0,PRICE_LEVEL_MODERATE,american_restaurant,40.731010399999995,-73.98858129999999,https://thesmithrestaurant.com/location/east-village/,the smith,0.09438356855467049,35.86739717734395,Claud,Contemporary,
ChIJJZKgh3JZwokRceJLj_PM7IY,Cathédrale Restaurant,"112 E 11th St, New York, NY 10003, USA",4.2,1383.0,PRICE_LEVEL_MODERATE,french_restaurant,40.731533899999995,-73.98919750000002,https://taogroup.com/venues/cathedrale-new-york/,cathdrale restaurant,0.08558681991109766,33.802958161066826,Claud,Contemporary,
ChIJWUOc55tZwokR9q_g5l051rk,IPPUDO NY,"65 4th Ave, New York, NY 10003, USA",4.4,5464.0,PRICE_LEVEL_MODERATE,restaurant,40.730948,-73.990287,https://www.ippudous.com/east-village,ippudo ny,0.051854186105028566,36.377749766739655,Penny,Seafood,
ChIJzWP0UJ1ZwokR99xSXUOZZ08,Ray's Candy Store,"113 Avenue A, New York, NY 10009, USA",4.6,1356.0,PRICE_LEVEL_INEXPENSIVE,dessert_shop,40.726248999999996,-73.983575,http://www.rayscandystore.com/,rays candy store,0.026716118448289854,36.239406578620525,Superiority Burger,Vegetarian,PRICE_LEVEL_INEXPENSIVE
ChIJK48-E51ZwokRvAA-v6fx9y0,Cafe Mogador,"101 St Marks Pl, New York, NY 10009, USA",4.5,3030.0,PRICE_LEVEL_MODERATE,moroccan_restaurant,40.7274314,-73.98431149999999,http://cafemogador.com/,cafe mogador,0.03384802810622554,37.09382366272529,Smithereens,Seafood,
ChIJVyFicJ1ZwokR2oIygOmovWw,Thursday Kitchen,"424 E 9th St, New York, NY 10009, USA",4.6,1416.0,PRICE_LEVEL_MODERATE,korean_restaurant,40.727565999999996,-73.98380499999999,http://www.thursdaykitchen.com/,thursday kitchen,0.043057142809692854,36.64331428628368,Smithereens,Seafood,
ChIJDeAEcRRZwokRiqpklOPPU9U,TOKUYAMATCHA & ONIGIRAZU BAR- E 6th St.,"627 E 6th St, New York, NY 10009, USA",4.4,439.0,PRICE_LEVEL_MODERATE,japanese_restaurant,40.7239875,-73.9801793,http://tokuyamasalon.com/cafe/,tokuyamatcha onigirazu bar e 6th st,0.0542295814237684,25.73924502291478,Bar Miller,Japanese,
ChIJrY6UTJxZwokRmL7yKAaqmKQ,Rai Rai Ken + Curry Ya + Otafuku,"218 E 10th St, New York, NY 10003, USA",4.4,1506.0,PRICE_LEVEL_MODERATE,japanese_restaurant,40.7292615,-73.98579509999999,http://rairaiken2000.com/,rai rai ken curry ya otafuku,0.037826218046870155,36.54608538343756,Tsukimi,Japanese,
ChIJ8fdYs51ZwokRA71PKvTvXG4,Shabu-Tatsu,"216 E 10th St, New York, NY 10003, USA",4.3,522.0,PRICE_LEVEL_MODERATE,japanese_restaurant,40.7292211,-73.98588629999999,https://www.shabutatsu.com/,shabutatsu,0.041285792542657934,26.224570489488105,Tsukimi,Japanese,
ChIJTaeWt5lZwokRj5-44r7fWgY,The Grey Dog - Union Square,"90 University Pl, New York, NY 10003, USA",4.4,1849.0,PRICE_LEVEL_MODERATE,american_restaurant,40.733795199999996,-73.99319899999999,https://www.thegreydog.com/location/the-grey-dog-union-square/,the grey dog union square,0.007252718660628152,36.912967376072466,Pranakhon,Thai,PRICE_LEVEL_MODERATE
ChIJCzeavZlZwokR2QIwtpnoa-M,Village Taverna,"81 University Pl, New York, NY 10003, USA",4.6,989.0,PRICE_LEVEL_MODERATE,greek_restaurant,40.733363499999996,-73.99307979999999,http://www.villagetaverna.com/,village taverna,0.04574969507061924,32.34100365915257,Pranakhon,Thai,PRICE_LEVEL_MODERATE
ChIJBWyKZp1ZwokRHhnug4zTch4,Hanoi House,"119 St Marks Pl, New York, NY 10009, USA",4.5,1340.0,PRICE_LEVEL_MODERATE,vietnamese_restaurant,40.7270085,-73.9835497,http://www.hanoihousenyc.com/,hanoi house,0.045162783969635543,35.358046592364374,Rosella,Japanese,
ChIJMcrE97VZwokR6_VTjbNC-MI,TabeTomo,"131 Avenue A, New York, NY 10009, USA",4.5,1157.0,PRICE_LEVEL_MODERATE,ramen_restaurant,40.7269404,-73.9831557,http://tabetomonyc.com/,tabetomo,0.020328507628980752,33.82605790845223,Rosella,Japanese,
ChIJbVF-VpZZwokRheGwm9Fu0wQ,La Contenta Oeste,"78 W 11th St, New York, NY 10011, USA",4.5,1125.0,PRICE_LEVEL_MODERATE,mexican_restaurant,40.7352051,-73.9981588,https://lacontentanyc.com/,la contenta oeste,0.03204817412139185,33.3654219105433,Kubeh,Middle Eastern,PRICE_LEVEL_MODERATE
ChIJ9bgCzJdZwokRvm_6RoQ8edg,Bar Six,"502 6th Ave, New York, NY 10011, USA",4.4,603.0,PRICE_LEVEL_MODERATE,french_restaurant,40.7364672,-73.9972827,http://www.barsixnyc.com/,bar six,0.12686777561052345,26.50758669267372,Kubeh,Middle Eastern,PRICE_LEVEL_MODERATE
ChIJ_UahM5RZwokRBtHbK9TH_z0,Morandi,"211 Waverly Pl, New York, NY 10014, USA",4.4,1625.0,PRICE_LEVEL_MODERATE,italian_restaurant,40.735316999999995,-74.00142819999999,http://www.morandiny.com/,morandi,0.1076835125858496,35.707797848969804,Semma,Indian,PRICE_LEVEL_MODERATE
ChIJmY35mpxZwokRqGzYDD-4sJI,Mighty Quinn's Barbeque,"75 Greenwich Ave, New York, NY 10014, USA",4.3,3827.0,PRICE_LEVEL_MODERATE,barbecue_restaurant,40.7367129,-74.00139349999999,http://mightyquinnsbbq.com/,mighty quinns barbeque,0.1031748789994727,35.26190145200633,Semma,Indian,PRICE_LEVEL_MODERATE
ChIJ44SZj09ZwokRqIeN6EEd_VQ,Lhasa,"177 1st Ave, New York, NY 10003, USA",4.6,343.0,PRICE_LEVEL_INEXPENSIVE,tibetan_restaurant,40.729385099999995,-73.9843357,,lhasa,0.04305344520117319,25.91335865758592,HAGS,Contemporary,
ChIJExC3nU9awokRgODOvdb3awc,Yemen Café & Restaurant,"176 Atlantic Ave, Brooklyn, NY 11201, USA",4.5,3519.0,PRICE_LEVEL_MODERATE,restaurant,40.6898154,-73.99370189999999,https://yemencafe.com/yemencafrestaurantatlantic?utm_source=google,yemen caf restaurant,0.14299724231074484,35.78403309227106,Al Badawi,Middle Eastern,PRICE_LEVEL_MODERATE
ChIJAQsbm0VawokRcg7_fS48m1g,Chez Moi,"135 Atlantic Ave, Brooklyn, NY 11201, USA",4.5,722.0,PRICE_LEVEL_MODERATE,french_restaurant,40.6908092,-73.99564529999999,http://chezmoiny.com/,chez moi,0.05733538523655007,29.031975377161398,Al Badawi,Middle Eastern,PRICE_LEVEL_MODERATE
ChIJPfSN0VpZwokRyqr6M5SqiYk,Kyuramen - Union Square,"210 E 14th St, New York, NY 10003, USA",4.5,2069.0,PRICE_LEVEL_MODERATE,japanese_restaurant,40.7328208,-73.9868085,https://www.newyorkkyuramen.com/,kyuramen union square,0.09210481680358155,36.39474219835702,Bánh Anh Em,Vietnamese,
ChIJx3Nrt55ZwokRP3Xiw0TGnKE,Han Dynasty,"90 3rd Ave, New York, NY 10003, USA",4.3,1520.0,PRICE_LEVEL_MODERATE,chinese_restaurant,40.7322306,-73.9882516,http://handynasty.net/east-village/,han dynasty,0.05357949813766928,35.857046022347966,Bánh Anh Em,Vietnamese,
ChIJ_WPcdpVZwokR6vSItP7fDZo,Cafe Cluny,"284 W 12th St, New York, NY 10014, USA",4.4,1364.0,PRICE_LEVEL_MODERATE,french_restaurant,40.7374114,-74.0039633,http://www.cafecluny.com/,cafe cluny,0.0181045629253633,35.422745244895644,Bartolo,Spanish,
ChIJo9tLC5VZwokR9t8kMnIACK0,St Tropez West Village,"304 W 4th St, New York, NY 10014, USA",4.6,943.0,PRICE_LEVEL_MODERATE,french_restaurant,40.737054,-74.0039038,https://www.sttropezwinebar.com/,st tropez west village,0.02367445233904644,32.14590657193144,Bartolo,Spanish,
ChIJcxPkLJxZwokR7blp76Vu2qY,Love Mama,"174 2nd Ave, New York, NY 10003, USA",4.4,1686.0,PRICE_LEVEL_MODERATE,asian_restaurant,40.7303859,-73.9860613,https://www.lovemamanyc2.com/,love mama,0.11446158436317233,35.626460987641934,Odre,Korean,
ChIJRzMU1p1ZwokRU_iO7sqY2Mk,John's of 12th Street,"302 E 12th St, New York, NY 10003, USA",4.4,1337.0,PRICE_LEVEL_MODERATE,italian_restaurant,40.7307176,-73.9854793,http://johnsof12thstreet.com/,johns of 12th street,0.0839488335627154,34.362613997247415,Odre,Korean,
ChIJh0Elkf1ZwokRrFXIVkSPvKU,Mino Brasserie,"225 W 12th St, New York, NY 10011, USA",4.7,649.0,PRICE_LEVEL_EXPENSIVE,french_restaurant,40.7377938,-74.0016243,https://minobrasserie.com/,mino brasserie,0.03958044397391979,29.515034672312964,Don Angie,Italian,PRICE_LEVEL_EXPENSIVE
ChIJ7bngQXZZwokRQtaUAwUwyJA,Au Za'atar - East Village,"188 Avenue A, New York, NY 10009, USA",4.3,4397.0,PRICE_LEVEL_MODERATE,lebanese_restaurant,40.7289046,-73.98117239999999,http://www.auzaatar.com/,au zaatar east village,0.05728882803774717,35.812534063547034,Ishq,Indian,
ChIJpesWaXZZwokRSTk8ph4r6Lw,El Camion Cantina,"194 Avenue A, New York, NY 10009, USA",4.4,795.0,PRICE_LEVEL_MODERATE,mexican_restaurant,40.7291667,-73.98111109999999,http://camioncantina.com/,el camion cantina,0.030167736712686178,29.587987159447763,Ishq,Indian,
ChIJu3WF-z9ZwokRSIlFddmXX1k,Osteria Nonnino,"637 Hudson St, New York, NY 10014, USA",4.8,3681.0,PRICE_LEVEL_MODERATE,italian_restaurant,40.7388972,-74.0057401,http://www.osterianonnino.com/,osteria nonnino,0.01665754546813479,38.80010945438238,Bangkok Supper Club,Thai,
ChIJ8U_F9b9ZwokRTaHyDKWRNSg,Pastis,"52 Gansevoort St, New York, NY 10014, USA",4.6,3069.0,PRICE_LEVEL_EXPENSIVE,restaurant,40.739241799999995,-74.007014,https://pastisnyc.com/?utm_source=GoogleBusinessProfile&utm_medium=Website&utm_campaign=MapLabs,pastis,0.10962362615039822,36.68451648619522,Bangkok Supper Club,Thai,
ChIJP1sRv09awokRDPi8okFBDOM,Lemongrass Brooklyn,"156 Court St, Brooklyn, NY 11201, USA",4.6,4002.0,PRICE_LEVEL_INEXPENSIVE,thai_restaurant,40.6886734,-73.99312359999999,http://lemongrassbrooklyn.com/,lemongrass brooklyn,0.2350481923167774,35.17942169219867,Saint Julivert Fisherie,Seafood,
ChIJr0CoF1BawokRDt4XLJXyJMA,Joya,"215 Court St, Brooklyn, NY 11201, USA",4.3,1259.0,PRICE_LEVEL_INEXPENSIVE,thai_restaurant,40.6866665,-73.9935596,https://www.joyathaibrooklyn.com/,joya,0.22613289521577118,31.37640525741075,Saint Julivert Fisherie,Seafood,
ChIJ0cnn-0xZwokRuVsKHV6GCCQ,Pasta Eater,"9 E 17th St, New York, NY 10003, USA",4.5,1532.0,PRICE_LEVEL_MODERATE,italian_restaurant,40.7376869,-73.99133379999999,https://www.pasta-eater.com/,pasta eater,0.04682343519842214,36.93811877761893,Kanyakumari,Indian,
ChIJv_vCZ6JZwokR_2lI72wJsl0,Laut,"15 E 17th St, New York, NY 10003, USA",4.4,2259.0,PRICE_LEVEL_MODERATE,malaysian_restaurant,40.737584299999995,-73.9910991,http://www.lautnyc.com/,laut,0.036698885524455986,36.559613373706526,Kanyakumari,Indian,
ChIJN40c3qFZwokRXMy2Eb1vKj8,Dear Irving Gramercy,"55 Irving Pl, New York, NY 10003, USA",4.6,1052.0,PRICE_LEVEL_EXPENSIVE,cocktail_bar,40.7362117,-73.98745439999999,http://www.dearirving.com/,dear irving gramercy,0.04438852073230885,32.98733775121229,Casa Mono,Spanish,PRICE_LEVEL_EXPENSIVE
ChIJucdA0KJZwokRSRxyOarSWoI,Yakiniku Futago Chelsea,"37 W 17th St, New York, NY 10011, USA",4.6,1256.0,PRICE_LEVEL_EXPENSIVE,barbecue_restaurant,40.7389084,-73.9940515,http://www.futago25usa.com/,yakiniku futago chelsea,0.10807499252380547,34.263100089714335,Kyma,Greek,PRICE_LEVEL_EXPENSIVE
ChIJyVewyABZwokRv1qJTtiP2ws,Vinyl Steakhouse,"35 W 19th St, New York, NY 10011, USA",4.7,821.0,PRICE_LEVEL_EXPENSIVE,restaurant,40.740035899999995,-73.993096,https://www.vinylsteakhouse.com/,vinyl steakhouse,0.10278441421338334,30.4765870294394,Kyma,Greek,PRICE_LEVEL_EXPENSIVE
ChIJY2jhXFxawokR3yjeUK_alQ0,Alma BK,"187 Columbia St, Brooklyn, NY 11231, USA",4.3,894.0,PRICE_LEVEL_MODERATE,mexican_restaurant,40.6855707,-74.0021592,https://www.almabk.com/,alma bk,0.14867414282282435,28.655910286126105,Sal Tang's,Chinese Contemporary,
ChIJSX_vN1xawokRaM1KeK7OCrY,Mazzat,"208 Columbia St, Brooklyn, NY 11231, USA",4.8,697.0,PRICE_LEVEL_MODERATE,mediterranean_restaurant,40.684973,-74.00294509999999,https://www.mazzatrestaurant.com/,mazzat,0.2156599384522196,28.382080738573364,Sal Tang's,Chinese Contemporary,
ChIJPbpC37xZwokRIsT-jIuHUr8,da Umberto,"107 W 17th St, New York, NY 10011, USA",4.5,385.0,PRICE_LEVEL_EXPENSIVE,italian_restaurant,40.7395815,-73.9959104,https://daumbertonyc.com/,da umberto,0.07709420586610705,25.424869529606717,Portale,Italian,PRICE_LEVEL_EXPENSIVE
ChIJSXmIIqJZwokRIhhDroV3qX8,abc kitchen,"35 E 18th St, New York, NY 10003, USA",4.4,3039.0,PRICE_LEVEL_EXPENSIVE,restaurant,40.737775,-73.9896167,https://www.abckitchen.nyc/,abc kitchen,0.036144023313852934,36.566271720233765,abcV,Vegetarian,PRICE_LEVEL_EXPENSIVE
ChIJ7ZjZzaNZwokR1avg50N7ORg,Vallata,"47 E 19th St, New York, NY 10003, USA",4.4,336.0,PRICE_LEVEL_EXPENSIVE,italian_restaurant,40.73807,-73.9885877,https://www.vallatanyc.com/,vallata,0.059515218340300644,24.64581737991639,abcV,Vegetarian,PRICE_LEVEL_EXPENSIVE
ChIJc1Vf7KFZwokR1YL2Rn9oxi8,Boucherie Union Square,"225 Park Ave S, New York, NY 10003, USA",4.7,4791.0,PRICE_LEVEL_EXPENSIVE,french_restaurant,40.7372552,-73.9882246,https://www.boucherieus.com/,boucherie union square,0.05251249104615529,37.86985010744613,Carlotto,Contemporary,
ChIJxTHke6JZwokRCLWVd99eDBw,Union Square Cafe,"101 E 19th St, New York, NY 10003, USA",4.6,2362.0,PRICE_LEVEL_EXPENSIVE,american_restaurant,40.7377702,-73.9878767,https://www.unionsquarecafe.com/?utm_source=google&utm_medium=gmb,union square cafe,0.041744251953730264,37.499068976555236,Carlotto,Contemporary,
ChIJFQLWr5VbwokRnbtHDMFSBeE,Dough Doughnuts Flatiron,"14 West 19th Street at, 5th Ave, New York, NY 10011, USA",4.5,3302.0,PRICE_LEVEL_MODERATE,donut_shop,40.739424199999995,-73.9924001,https://www.doughdoughnuts.com/,dough doughnuts flatiron,0.027998054391454842,37.16402334730254,Oiji Mi,Korean,
ChIJyyYAdGhZwokRyaCxKMa04Rc,Baodega 小杨生煎,"7 W 20th St, New York, NY 10011, USA",4.6,1538.0,PRICE_LEVEL_MODERATE,dim_sum_restaurant,40.740185100000005,-73.9917492,https://www.baodegaonline.com/,baodega ,0.08415971743083225,36.990083390830016,Oiji Mi,Korean,
ChIJX68xNnhZwokRbktHVFdiUKo,The Best Sichuan 一品成都21,"22 E 21st St, New York, NY 10010, USA",4.9,2403.0,PRICE_LEVEL_MODERATE,chinese_restaurant,40.739438899999996,-73.98913809999999,http://www.malahouse21.com/,the best sichuan 21,0.04036058299114918,39.01567300410621,Rezdôra,Italian,
ChIJ-2LOqMZZwokRNO3qaFZWJhQ,mezeh,"900 Broadway, New York, NY 10003, USA",4.2,303.0,PRICE_LEVEL_INEXPENSIVE,mediterranean_restaurant,40.738884299999995,-73.98970179999999,http://www.mezeh.com/,mezeh,0.059662375201786716,23.31405149757856,Rezdôra,Italian,
ChIJ0f2BYaFZwokR1ZhJ5byw-co,Giorgio's of Gramercy,"27 E 21st St, New York, NY 10010, USA",4.5,542.0,PRICE_LEVEL_EXPENSIVE,american_restaurant,40.739690599999996,-73.9887334,https://giorgiosofgramercy.com/,giorgios of gramercy,0.0952317463005445,26.77721904439347,Massara,Italian,
ChIJgRjO3E1awokRoC9SdsHbe-w,French Louie,"320 Atlantic Ave, Brooklyn, NY 11201, USA",4.5,1295.0,PRICE_LEVEL_MODERATE,french_restaurant,40.6880126,-73.988216,http://frenchlouienyc.com/,french louie,0.11717668475575953,34.04387978293089,Mile End,Deli,PRICE_LEVEL_MODERATE
ChIJ9dhbu01awokRdKfkixsK10w,Bijan's,"81 Hoyt St, Brooklyn, NY 11201, USA",4.3,1286.0,PRICE_LEVEL_MODERATE,american_restaurant,40.687971399999995,-73.9867095,http://www.bijansbrooklyn.com/,bijans,0.06492180290005525,33.58093836519934,Mile End,Deli,PRICE_LEVEL_MODERATE
ChIJw2lMFL9ZwokRXmhKDX7Chxs,Lobster Place,"75 9th Ave, New York, NY 10011, USA",4.5,3678.0,PRICE_LEVEL_EXPENSIVE,seafood_restaurant,40.742553,-74.006052,http://www.lobsterplace.com/,lobster place,0.02522464462583443,37.197304264489986,La Devozione: The Oval,Italian,
ChIJw2lMFL9ZwokRyO_5o2VT8os,Friedman's,"75 9th Ave, New York, NY 10011, USA",4.5,1707.0,PRICE_LEVEL_MODERATE,restaurant,40.742692999999996,-74.0062283,https://www.friedmansrestaurant.com/,friedmans,0.04052905269485026,37.013651367661794,La Devozione: The Oval,Italian,
ChIJYbpEwr5bwokR46uCQtL8Kmg,Cafe Spaghetti,"126 Union St, Brooklyn, NY 11231, USA",4.7,580.0,PRICE_LEVEL_MODERATE,italian_restaurant,40.6840866,-74.0024577,https://www.cafespaghetti.com/,cafe spaghetti,0.2606957398687865,26.171651121574563,Untable,Thai,
ChIJD_vG4ltawokRE4BzRSy5BBk,Bar Bruno,"520 Henry St, Brooklyn, NY 11231, USA",4.3,500.0,PRICE_LEVEL_MODERATE,mexican_restaurant,40.683418599999996,-73.99991709999999,http://www.barbrunonyc.com/,bar bruno,0.05111635981798294,25.886603682184205,Gus's Chop House,Steakhouse,PRICE_LEVEL_MODERATE
ChIJ8VQWXL9ZwokRvzf2OM4TNP4,Miznon,"435 W 15th St, New York, NY 10011, USA",4.4,2914.0,PRICE_LEVEL_MODERATE,israeli_restaurant,40.742497799999995,-74.0064227,http://miznonusa.com/,miznon,0.138254576623394,35.34094508051927,Crane Club,Steakhouse,
ChIJw7SsU_pZwokREyGSSulF53U,Misi,"329 Kent Ave, Brooklyn, NY 11249, USA",4.3,1824.0,PRICE_LEVEL_VERY_EXPENSIVE,italian_restaurant,40.713401,-73.9671874,http://www.misinewyork.com/,misi,0.12301412421959042,35.02383050936491,Aska,Scandinavian,PRICE_LEVEL_VERY_EXPENSIVE
ChIJN7sVKcJZwokRZp59H74tSFg,Antidote,"66 S 2nd St, Brooklyn, NY 11249, USA",4.8,2081.0,PRICE_LEVEL_MODERATE,chinese_restaurant,40.7142531,-73.9654481,http://antidoteny.com/,antidote,0.10108364322702776,37.78699628127567,Shota Omakase,Japanese,
ChIJ2d8VLKdZwokRuFhVXsVySjU,CAVA,"325 Park Ave S, New York, NY 10010, USA",4.6,2002.0,PRICE_LEVEL_MODERATE,mediterranean_restaurant,40.7408754,-73.98548559999999,https://cava.com/locations/24th-park-avenue-ny,cava,0.0753748560121252,37.0955017278545,La Tête d’Or,Steakhouse,
ChIJiSvB7hJZwokRaSiOqKLW8aw,ONGI (23rd St/Park Ave),"295 Park Ave S, New York, NY 10010, USA",4.9,553.0,PRICE_LEVEL_MODERATE,korean_restaurant,40.7398466,-73.9863196,http://www.on-gi.com/,ongi 23rd stpark ave,0.09081141070511663,28.940263071538602,La Tête d’Or,Steakhouse,
ChIJxzWCXBpZwokR_f2MzdPXfs0,Isla & Co. - Williamsburg,"66 Grand St, Brooklyn, NY 11249, USA",4.9,1606.0,PRICE_LEVEL_MODERATE,restaurant,40.7156514,-73.96504639999999,https://www.isla-co.com/williamsburg,isla co williamsburg,0.16344223863346768,37.538693136398386,Sunday in Brooklyn,American,PRICE_LEVEL_MODERATE
ChIJweAtELhbwokRO1AexCvuRo0,LaRina Pastificio & Vino,"387 Myrtle Ave, Brooklyn, NY 11205, USA",4.7,1194.0,PRICE_LEVEL_MODERATE,italian_restaurant,40.6933422,-73.97042200000001,http://larinabk.com/,larina pastificio vino,0.24512723243016077,32.49847321083807,Glin Thai Bistro,Thai,PRICE_LEVEL_MODERATE
ChIJTYiB2wRbwokRUGUMdpTFr64,Mint Heights,"368 Myrtle Ave, Brooklyn, NY 11205, USA",4.8,474.0,PRICE_LEVEL_MODERATE,indian_restaurant,40.693021099999996,-73.9714156,https://www.ordermintheights.com/,mint heights,0.15999386280762823,26.82007364630846,Glin Thai Bistro,Thai,PRICE_LEVEL_MODERATE
ChIJ51pNHN9bwokROF0EWcMTsoU,OTB,"141 Broadway, Brooklyn, NY 11211, USA",4.6,327.0,PRICE_LEVEL_MODERATE,cocktail_bar,40.710454299999995,-73.9634523,http://www.otbbk.com/,otb,0.057070445312624056,25.585154656248513,Francie,Contemporary,PRICE_LEVEL_MODERATE
ChIJ2yfij9hbwokRokungtwEERU,Pies 'n' Thighs,"166 S 4th St, Brooklyn, NY 11211, USA",4.4,3860.0,PRICE_LEVEL_MODERATE,american_restaurant,40.71117840000001,-73.9613777,https://piesnthighs.com/piesnthighs?utm_source=google,pies n thighs,0.13842755868431908,35.33886929578817,Mesiba,Middle Eastern,PRICE_LEVEL_MODERATE
ChIJVfgMf99bwokR6ehjTR5avnE,Simple,"346 Bedford Ave, Brooklyn, NY 11249, USA",4.4,475.0,PRICE_LEVEL_MODERATE,restaurant,40.7124405,-73.962761,https://www.simplecafenyc.com/,simple,0.08399111860383526,25.742106576753976,Mesiba,Middle Eastern,PRICE_LEVEL_MODERATE
ChIJOf_8DadZwokR09CnvunhVtA,Hillstone,"378 Park Ave S, New York, NY 10010, USA",4.4,2402.0,PRICE_LEVEL_EXPENSIVE,american_restaurant,40.742658999999996,-73.9848365,https://hillstonerestaurant.com/locations/nyc-parkavenuesouth/,hillstone,0.08252573839639799,36.00969113924322,Upland,Mediterranean Cuisine,PRICE_LEVEL_EXPENSIVE
ChIJqZpzcqdZwokRslekUxRXqlw,Sarabeth's Park Avenue South,"381 Park Ave S, New York, NY 10016, USA",4.2,2005.0,PRICE_LEVEL_EXPENSIVE,american_restaurant,40.742512999999995,-73.98436800000002,https://www.sarabethsrestaurants.com/location/sarabeths-park-avenue-south-nomad/,sarabeths park avenue south,0.06873455562773005,35.17518533246724,Upland,Mediterranean Cuisine,PRICE_LEVEL_EXPENSIVE
ChIJ60c5xqVZwokRv6aAYl8hT6s,Bazár Tapas Bar and Restaurant,"31 W 26th St #2, New York, NY 10010, USA",4.4,1249.0,PRICE_LEVEL_MODERATE,tapas_restaurant,40.7444336,-73.9900996,http://www.bazarnomad.com/,bazr tapas bar and restaurant,0.05424520031305043,33.8390575962434,Il Fiorista,Contemporary,
ChIJW3Q406VZwokR_1R4IGTq4oA,INDAY,"1133 Broadway, New York, NY 10010, USA",4.5,733.0,PRICE_LEVEL_INEXPENSIVE,indian_restaurant,40.74382,-73.989469,http://indayallday.com/,inday,0.03794892501304881,29.374612899843413,Il Fiorista,Contemporary,
ChIJXXhKdopawokRo9I9ZkB7GP0,Red Hook Lobster Pound,"284 Van Brunt St, Brooklyn, NY 11231, USA",4.4,2304.0,PRICE_LEVEL_MODERATE,seafood_restaurant,40.6798444,-74.0103726,https://www.redhooklobster.com/,red hook lobster pound,0.1372233129700908,35.35332024435891,Café Kestrel,Contemporary,
ChIJ_2AHE4pawokRpKXZ6mWSQDE,Brooklyn Ice House,"318 Van Brunt St, Brooklyn, NY 11231, USA",4.5,573.0,PRICE_LEVEL_INEXPENSIVE,bar_and_grill,40.6791701,-74.0110448,,brooklyn ice house,0.05029798966529687,27.626424124016438,Café Kestrel,Contemporary,
ChIJK0fVw6dZwokRZuF-vAUC4II,Marta,"29 E 29th St, New York, NY 10016, USA",4.5,1881.0,PRICE_LEVEL_MODERATE,restaurant,40.744476399999996,-73.9845825,https://www.martamanhattan.com/?utm_source=GoogleBusinessProfile&utm_medium=Website&utm_campaign=MapLabs,marta,0.09153121624438927,36.40162540506733,Atoboy,Korean,PRICE_LEVEL_MODERATE
ChIJ83Nr8qdZwokRlQ9NQpIpcw4,Sabai Thai,"432 Park Ave S, New York, NY 10016, USA",4.5,1225.0,PRICE_LEVEL_MODERATE,thai_restaurant,40.744299,-73.98366399999999,https://www.sabaithai.nyc/,sabai thai,0.09949059134475945,33.55611290386289,Atoboy,Korean,PRICE_LEVEL_MODERATE
ChIJVxIZwmxZwokR55XfNgRZXf0,Pastagasm,"1158 Broadway on 27th Street, New York, NY 10001, USA",4.7,499.0,PRICE_LEVEL_MODERATE,italian_restaurant,40.744573599999995,-73.98863109999999,https://pastagasm.us/,pastagasm,0.05841192123565537,27.78905694517214,Ulivo,Italian,PRICE_LEVEL_MODERATE
ChIJsaYZEKZZwokRThIP62r39zQ,KazuNori: The Original Hand Roll Bar,"15 W 28th St, New York, NY 10001, USA",4.7,3065.0,PRICE_LEVEL_MODERATE,sushi_restaurant,40.745188399999996,-73.988237,https://www.handrollbar.com/nomad/,kazunori the original hand roll bar,0.06732399282899852,37.69211208605202,Café Carmellini,Mediterranean Cuisine,
ChIJX6wpqwdZwokRa3aTRWulWkA,KRAAM Thai,"254 5th Ave, New York, NY 10001, USA",4.7,460.0,PRICE_LEVEL_MODERATE,thai_restaurant,40.744973400000006,-73.98743449999999,http://www.kraamnyc.com/,kraam thai,0.010179357974158807,27.977847704310097,Café Carmellini,Mediterranean Cuisine,
ChIJC3VecrpbwokRLNJIz-9s4VQ,Olea,"171 Lafayette Ave, Brooklyn, NY 11238, USA",4.6,1839.0,PRICE_LEVEL_MODERATE,mediterranean_restaurant,40.6878197,-73.9706231,http://www.oleabrooklyn.com/,olea,0.23123086661610082,35.22522960060679,Miss Ada,Israeli,PRICE_LEVEL_MODERATE
ChIJFWiC8blbwokRDzOGQVtbEm4,Black Iris,"120 Lafayette Ave, Brooklyn, NY 11238, USA",4.7,1359.0,PRICE_LEVEL_MODERATE,mediterranean_restaurant,40.687308699999996,-73.9724778,https://blackirisny.com/?utm_source=google,black iris,0.23550920153710533,34.263889581554736,Miss Ada,Israeli,PRICE_LEVEL_MODERATE
ChIJEZ8DnCFbwokRxwyv6ntm5sc,Goog Thai Cook Shop,"380 Van Brunt St, Brooklyn, NY 11231, USA",4.6,464.0,PRICE_LEVEL_MODERATE,thai_restaurant,40.677094,-74.0135224,http://www.goognyc.com/,goog thai cook shop,0.14957613753958146,25.845086349525022,Red Hook Tavern,American,PRICE_LEVEL_MODERATE
ChIJ6bXru69ZwokRQQ77x79D89M,Mustang Harry's,"352 7th Ave, New York, NY 10001, USA",4.4,2497.0,PRICE_LEVEL_MODERATE,restaurant,40.7483311,-73.9929116,https://www.mustangharrys.com/,mustang harrys,0.09593027724604,35.84883667304752,Markette,Contemporary,
ChIJofhOzbxZwokRQf1ixFGebYE,CAVA,"307 7th Ave, New York, NY 10001, USA",4.7,961.0,PRICE_LEVEL_MODERATE,mediterranean_restaurant,40.7468492,-73.9934124,http://cava.com/,cava,0.08256252297293494,32.11924972432478,Markette,Contemporary,
ChIJzae3_LlbwokR6ts6PCZ3agM,Evelina,"211 Dekalb Ave, Brooklyn, NY 11205, USA",4.7,1504.0,PRICE_LEVEL_EXPENSIVE,italian_restaurant,40.6897385,-73.970998,http://www.evelinabk.com/,evelina,0.03763102953072043,38.04842764563136,Mango Bay,Caribbean,
ChIJrXze-rlbwokRl3G4x1txJgk,Colonia Verde,"219 Dekalb Ave, Brooklyn, NY 11205, USA",4.6,992.0,PRICE_LEVEL_MODERATE,restaurant,40.689699399999995,-73.9707225,https://www.coloniaverdenyc.com/,colonia verde,0.03505434106989415,32.49934790716127,Mango Bay,Caribbean,
ChIJR0DxVQhZwokRY4vlDg_TZMI,Fumo Kips Bay,"415 3rd Ave, New York, NY 10016, USA",4.4,351.0,PRICE_LEVEL_MODERATE,italian_restaurant,40.7425885,-73.9800928,https://www.fumorestaurant.com/,fumo kips bay,0.10449964886853036,24.256004213577633,Norma Gastronomia Siciliana,Italian,PRICE_LEVEL_MODERATE
ChIJEw37uV1ZwokRWHsTZx1hg1A,Sweet Chick,"164 Bedford Ave, Brooklyn, NY 11249, USA",4.4,3683.0,PRICE_LEVEL_MODERATE,american_restaurant,40.718392099999996,-73.95741129999999,https://www.sweetchick.com/,sweet chick,0.11282955551059548,35.646045333872856,Enso,Japanese,
ChIJZ4fExV1ZwokRR__-PAobWno,Oasis,"168 Bedford Ave, Brooklyn, NY 11249, USA",4.6,1107.0,PRICE_LEVEL_INEXPENSIVE,mediterranean_restaurant,40.7183074,-73.95753959999999,https://www.oasisbedford.com/,oasis,0.10679553108166372,32.78845362702003,Enso,Japanese,
ChIJm7uvMfZawokRNR0XRCotzWY,Frankies 457 Spuntino,"457 Court St, Brooklyn, NY 11231, USA",4.5,1456.0,PRICE_LEVEL_MODERATE,italian_restaurant,40.6773861,-73.99815000000001,http://www.frankiesspuntino.com/,frankies 457 spuntino,0.11990065398140101,35.62119215222319,6 Restaurant,European,
ChIJNfj_HvRbwokRe5uCgeIzrf4,Aromi,"552 Court St, Brooklyn, NY 11231, USA",4.9,716.0,PRICE_LEVEL_MODERATE,italian_restaurant,40.6750294,-73.9996712,http://www.arominyc.com/,aromi,0.17498085927983031,29.560229688642035,6 Restaurant,European,
ChIJAywos7FbwokRmApnRqaSa9Q,Habana Outpost,"757 Fulton St, Brooklyn, NY 11217, USA",4.6,2289.0,PRICE_LEVEL_INEXPENSIVE,mexican_restaurant,40.686409999999995,-73.974189,http://habanaoutpost.com/,habana outpost,0.09920054290441623,36.809593485147005,Theodora,Mediterranean Cuisine,
ChIJucbIy0JZwokRvgoW5tnNHM0,Wythe Hotel,"80 Wythe Ave, Brooklyn, NY 11249, USA",4.5,1620.0,PRICE_LEVEL_EXPENSIVE,hotel,40.7218996,-73.9580678,http://www.wythehotel.com/,wythe hotel,0.1334639011030221,35.89843318676373,Laser Wolf,Middle Eastern,
ChIJ9-EhOXlZwokRSdB_B9mYM30,Kokomo Restaurant & Lounge,"65 Kent Ave, Brooklyn, NY 11249, USA",4.4,3105.0,PRICE_LEVEL_MODERATE,caribbean_restaurant,40.721979399999995,-73.9597134,https://www.kokomonyc.com/,kokomo restaurant lounge,0.1492106187480063,35.20947257502392,Laser Wolf,Middle Eastern,
ChIJW-3UoWxZwokRrli2mpfYZdo,NUBIANI - Koreatown,"315 5th Ave #3FL, New York, NY 10016, USA",4.5,957.0,PRICE_LEVEL_EXPENSIVE,korean_barbecue_restaurant,40.746994099999995,-73.9854149,https://www.nubianinyc.com/,nubiani koreatown,0.07025403202940148,31.22695161564718,HanGawi,Korean,PRICE_LEVEL_EXPENSIVE
ChIJSy8Bbl9ZwokR8QnOQHNn4hk,St. Mazie Bar & Supper Club,"345 Grand St, Brooklyn, NY 11211, USA",4.5,1191.0,PRICE_LEVEL_MODERATE,live_music_venue,40.7126002,-73.9558512,http://stmazie.com/,st mazie bar supper club,0.13399611658339736,32.802046600999226,The Four Horsemen,American,PRICE_LEVEL_MODERATE
ChIJbXC6C19ZwokRXOXRQspVwTM,Have & Meyer,"103 Havemeyer St, Brooklyn, NY 11211, USA",4.4,738.0,PRICE_LEVEL_MODERATE,restaurant,40.713221499999996,-73.95632549999999,http://haveandmeyer.com/,have meyer,0.08589186137275305,28.34929766352696,The Four Horsemen,American,PRICE_LEVEL_MODERATE
ChIJdzf8kEZZwokRXtSOY0-Kwaw,Anytime Kitchen,"23 W 32nd St 3rd floor, New York, NY 10001, USA",4.6,2331.0,PRICE_LEVEL_MODERATE,korean_restaurant,40.747774899999996,-73.9867579,https://www.anytimenyc.com/,anytime kitchen,0.024444797858634845,37.70666242569638,Joo Ok,Korean,
ChIJzfG-8ahZwokR5FLB4KmxBXI,Woorijip,"12 W 32nd St, New York, NY 10001, USA",4.5,3002.0,PRICE_LEVEL_INEXPENSIVE,korean_restaurant,40.747405099999995,-73.98656869999999,http://www.woorijip.com/,woorijip,0.0354942173164355,37.07406939220277,Joo Ok,Korean,
ChIJg9KWRqRZwokRdBRkRYL_i3g,The Cutting Room,"44 E 32nd St, New York, NY 10016, USA",4.4,1410.0,PRICE_LEVEL_MODERATE,live_music_venue,40.7460522,-73.9828972,http://thecuttingroomnyc.com/,the cutting room,0.05534945175031606,35.43580657899621,Moono,Korean,
ChIJOfbniQdZwokRcU0x7NuerWI,Sushi Sen-Nin,"30 E 33rd St, New York, NY 10016, USA",4.3,263.0,PRICE_LEVEL_EXPENSIVE,sushi_restaurant,40.746736399999996,-73.9830144,http://sushisennin.com/,sushi sennin,0.041073344137030565,23.637119870355633,Moono,Korean,
ChIJE726doFZwokRvb1_kHKC9dk,DDOBAR by Joomak NYC,"Starrett-Lehigh Building, 601 W 26th St, New York, NY 10001, USA",4.7,238.0,PRICE_LEVEL_INEXPENSIVE,restaurant,40.751323899999996,-74.00590799999999,https://www.ddobarnyc.com/,ddobar by joomak nyc,0.03273137767218558,25.487223467933774,Hav & Mar,Ethiopian,
ChIJGbyHW6hZwokRIGp7M62XV3E,Baekjeong NYC,"49 W 32nd St, New York, NY 10001, USA",4.4,2476.0,PRICE_LEVEL_EXPENSIVE,korean_barbecue_restaurant,40.7482718,-73.9878734,,baekjeong nyc,0.010112381356340926,36.87865142372391,Nōksu,Contemporary,
ChIJAQAE4ahZwokRhGsJIi1HqYU,Antoya Korean BBQ,"37 W 32nd St, New York, NY 10001, USA",4.4,2440.0,PRICE_LEVEL_MODERATE,korean_barbecue_restaurant,40.7481097,-73.9872039,https://antoyabbq.com/?utm_source=google,antoya korean bbq,0.05746745929557267,36.31039048845313,Nōksu,Contemporary,
ChIJ0VWwJI9awokRoiFWFqYZMQ8,Hometown Bar-B-Que,"454 Van Brunt St, Brooklyn, NY 11231, USA",4.5,4381.0,PRICE_LEVEL_MODERATE,barbecue_restaurant,40.6749167,-74.0161583,http://www.hometownbarbque.com/,hometown barbque,0.0,37.5,Hometown Bar B Que New York,Barbecue,PRICE_LEVEL_MODERATE
ChIJZ6MGOI9awokRL_wHVV0nxUg,Brooklyn Crab,"24 Reed St, Brooklyn, NY 11231, USA",4.2,2983.0,PRICE_LEVEL_MODERATE,seafood_restaurant,40.6752185,-74.01658549999999,https://www.brooklyncrab.com/?utm_source=GBL&utm_medium=GBL&utm_campaign=CustomAudience&utm_term=GBL&utm_content=GBL,brooklyn crab,0.04923522071724132,35.409177351393105,Hometown Bar B Que New York,Barbecue,PRICE_LEVEL_MODERATE
ChIJs-7QGlRbwokR5RSEfxOQKX4,Kiosko 787,"488 Carroll St, Brooklyn, NY 11215, USA",4.2,826.0,PRICE_LEVEL_MODERATE,american_restaurant,40.6769095,-73.9861281,https://www.kiosko787ny.com/,kiosko 787,0.10925801736630864,27.948903791604295,Café Mars,Contemporary,
ChIJ_yaCB6xbwokRzsbqAJUYxpY,Miriam Restaurant,"79 5th Ave, Brooklyn, NY 11217, USA",4.4,2250.0,PRICE_LEVEL_MODERATE,mediterranean_restaurant,40.680158,-73.9777381,http://parkslope.miriamrestaurant.com/,miriam restaurant,0.03441990116318168,36.58696118604182,Sawa,Middle Eastern,
ChIJUav8AqxbwokRiMxGcbqw7nY,SkyIce Thai Food & Ice Cream,"63 5th Ave, Brooklyn, NY 11217, USA",4.6,1031.0,PRICE_LEVEL_MODERATE,thai_restaurant,40.6806951,-73.9773398,http://www.skyice.net/,skyice thai food ice cream,0.034417083402898126,32.89699499916522,Sawa,Middle Eastern,
ChIJd9-PXGpZwokRM_cZ9pxu8Bk,The Brooklyn Barge,"79 West St, Brooklyn, NY 11222, USA",4.5,890.0,PRICE_LEVEL_MODERATE,american_restaurant,40.7293838,-73.9595216,http://thebrooklynbarge.com/,the brooklyn barge,0.04950879116860027,30.805894505976795,Lingo,Japanese,
ChIJ2fdTNEBZwokRcAtK9PyqDAs,Di An Di,"68 Greenpoint Ave, Brooklyn, NY 11222, USA",4.3,1054.0,PRICE_LEVEL_MODERATE,vietnamese_restaurant,40.7296511,-73.9582848,https://www.diandi.nyc/,di an di,0.11875926647346882,30.614888802318372,Lingo,Japanese,
ChIJDw8CYIpZwokRm_KQDaRtTK0,Taqueria Ramirez,"94 Franklin St, Brooklyn, NY 11222, USA",4.7,1871.0,PRICE_LEVEL_MODERATE,mexican_restaurant,40.7278729,-73.9569589,https://taqueriaramirezbk.com/,taqueria ramirez,0.11947116143596741,37.06634606276839,Chez Ma Tante,American Contemporary,PRICE_LEVEL_MODERATE
ChIJi7zDhGVZwokRwoHkVROLwlk,ACRE,"64 Meserole Ave, Brooklyn, NY 11222, USA",4.7,563.0,PRICE_LEVEL_MODERATE,japanese_restaurant,40.726281199999995,-73.9546988,http://acrenyc.com/,acre,0.25473382520201576,26.073194097575808,Chez Ma Tante,American Contemporary,PRICE_LEVEL_MODERATE
ChIJ0bhWy0JZwokRxxk-A6fJH1Q,Brooklyn Bowl,"61 Wythe Ave, Brooklyn, NY 11249, USA",4.5,3907.0,PRICE_LEVEL_MODERATE,live_music_venue,40.7218874,-73.9573813,http://www.brooklynbowl.com/brooklyn,brooklyn bowl,0.16777374339559256,35.48671507925289,KRU,Thai,PRICE_LEVEL_MODERATE
ChIJkbv811xZwokRVB51ebB478s,Mable's Smokehouse & Banquet Hall,"44 Berry St, Brooklyn, NY 11249, USA",4.4,1912.0,PRICE_LEVEL_MODERATE,barbecue_restaurant,40.7211621,-73.9569455,http://www.mablessmokehouse.com/,mables smokehouse banquet hall,0.20638416123162462,34.523390065220504,KRU,Thai,PRICE_LEVEL_MODERATE
ChIJfzDanalZwokReBUChuK5tmI,Barn Joo 35,"34 W 35th St, New York, NY 10001, USA",4.4,1715.0,PRICE_LEVEL_MODERATE,korean_restaurant,40.749668199999995,-73.9858072,https://linktr.ee/barnjoo_35?utm_source=linktree_profile_share&ltsid=d006ded4-6dc3-4817-8b71-8173feba310c,barn joo 35,0.07265671600656032,36.128119407921275,Cho Dang Gol,Korean,PRICE_LEVEL_MODERATE
ChIJFVTFUMNZwokRzfW-EGTyYrg,Noona Noodles,"46 W 36th St. FL1, New York, NY 10018, USA",4.4,407.0,PRICE_LEVEL_MODERATE,korean_restaurant,40.7503092,-73.98559089999999,http://noonanoodles.com/,noona noodles,0.06773224643548363,25.257213042774197,Cho Dang Gol,Korean,PRICE_LEVEL_MODERATE
ChIJh_o5GqpZwokRYNjQn-NMZBc,Reichenbach Hall,"5 W 37th St, New York, NY 10018, USA",4.6,6933.0,PRICE_LEVEL_MODERATE,german_restaurant,40.7508078,-73.98403379999999,https://reichenbachhall.com/,reichenbach hall,0.0724903658288907,37.13011561005331,Tonchin,Japanese,PRICE_LEVEL_MODERATE
ChIJDzPlkKtZwokRNarnEbpnQdY,Jerusalem Cafe,"7 W 36th St. Ground Floor, New York, NY 10018, USA",4.4,899.0,PRICE_LEVEL_MODERATE,restaurant,40.750201499999996,-73.9842655,https://j2nyc.com/?utm_source=google,jerusalem cafe,0.02299441516002506,30.714067018079703,Tonchin,Japanese,PRICE_LEVEL_MODERATE
ChIJg4jKh51ZwokRsLENy4UhWdA,Ahimsa,"204 E 38th St, New York, NY 10016, USA",4.5,1436.0,PRICE_LEVEL_MODERATE,indian_restaurant,40.7478055,-73.97592949999999,http://ahimsanyc.com/,ahimsa,0.11709535531174282,35.454855736259084,Little Alley,Chinese,PRICE_LEVEL_MODERATE
ChIJZ1I1dwZZwokR6KXuJ8GuURk,Ted's Corner Tavern,"523 3rd Ave, New York, NY 10016, USA",4.5,295.0,PRICE_LEVEL_MODERATE,cocktail_bar,40.746221999999996,-73.97752600000001,http://www.tedscornertavern.com/,teds corner tavern,0.13528145152451382,23.826622581705834,Little Alley,Chinese,PRICE_LEVEL_MODERATE
ChIJg8puJSdZwokR8fwzSFFDll4,estiatorio Milos Hudson Yards,"20 Hudson Yards Fifth Floor, New York, NY 10001, USA",4.4,1084.0,PRICE_LEVEL_VERY_EXPENSIVE,seafood_restaurant,40.7538419,-74.00107679999999,https://www.estiatoriomilos.com/location/nyhudsonyards/,estiatorio milos hudson yards,0.0748082476535699,31.942301028157164,Peak,Contemporary,
ChIJwSsT2EZZwokRPCbA4-DA24k,The Bronx Brewery & Hudson Yards Kitchen,"20 Hudson Yards Unit 207, New York, NY 10001, USA",4.5,442.0,PRICE_LEVEL_MODERATE,beer_garden,40.753393599999995,-74.00105500000001,https://thebronxbrewery.com/pages/hudson-yards-location,the bronx brewery hudson yards kitchen,0.09973153782967731,25.723221546043874,Peak,Contemporary,
ChIJ9Vt2BbNZwokR5wg-lqvfgN8,Friedman's,"450 10th Ave, New York, NY 10018, USA",4.5,4392.0,PRICE_LEVEL_MODERATE,restaurant,40.7552433,-73.9983273,https://www.friedmansrestaurant.com/,friedmans,0.09638592016739374,36.343368957991274,Papa San,Japanese,
ChIJRyAmqgpZwokRHjS6xvDPVfI,Greywind,"451 10th Ave, New York, NY 10018, USA",4.6,381.0,PRICE_LEVEL_MODERATE,restaurant,40.7556046,-73.99868579999999,http://greywindnyc.com/,greywind,0.09642468089684361,25.652903829237875,Papa San,Japanese,
ChIJaQRXYuRZwokRHjAN5MkBizY,Rule of Thirds,"171 Banker St, Brooklyn, NY 11222, USA",4.3,1614.0,PRICE_LEVEL_MODERATE,japanese_restaurant,40.724744799999996,-73.9552327,http://thirdsbk.com/,rule of thirds,0.1515881275207238,34.680942469751315,Uzuki,Japanese,
ChIJl-2pikRZwokRNxfAFUMHmjc,Amami,"57 Nassau Ave, Brooklyn, NY 11222, USA",4.5,437.0,PRICE_LEVEL_MODERATE,japanese_restaurant,40.7235161,-73.95213129999999,http://amamibk.com/,amami,0.1580696493357067,24.97316420797152,Uzuki,Japanese,
ChIJUfItHUBZwokRQLZURlrMYnk,Naked Dog,"47 Java St, Brooklyn, NY 11222, USA",4.6,669.0,PRICE_LEVEL_MODERATE,italian_restaurant,40.731325999999996,-73.9593539,http://www.nakeddogbrooklyn.com/,naked dog,0.22480454206995762,26.99234549516051,Madre,Contemporary,PRICE_LEVEL_MODERATE
ChIJm3pogb5bwokRd-Uxh4j7qQk,Peaches Grand,"285 Grand Ave, Brooklyn, NY 11238, USA",4.3,1301.0,PRICE_LEVEL_MODERATE,american_restaurant,40.6880439,-73.9626063,https://www.bcrestaurantgroup.com/location/peaches-grand/,peaches grand,0.1374397303759313,32.86072323548882,Place des Fêtes,Contemporary,
ChIJ0Wca-7xbwokRFg1cpaHFp2c,Locanda Vini & Olii,"129 Gates Ave, Brooklyn, NY 11238, USA",4.5,791.0,PRICE_LEVEL_MODERATE,italian_restaurant,40.684965,-73.96294879999999,http://www.locandany.com/,locanda vini olii,0.20698611695893518,27.926166596492777,Place des Fêtes,Contemporary,
ChIJoWw0OwBbwokRYa4eIXjoCMY,Calexico,"278 5th Ave, Brooklyn, NY 11215, USA",4.3,1175.0,PRICE_LEVEL_MODERATE,mexican_restaurant,40.6743051,-73.9823072,http://calexico.com/,calexico,0.1414993367854693,31.552007958574368,Haenyeo,Korean,PRICE_LEVEL_MODERATE
ChIJD1RILYNbwokR7YX0yLFLlpQ,Terrace Restaurant & Bakery,"280 5th Ave, Brooklyn, NY 11215, USA",4.8,774.0,PRICE_LEVEL_MODERATE,mexican_restaurant,40.6742312,-73.9823146,https://www.terracerestaurantbk.com/,terrace restaurant bakery,0.1477834077662028,29.966599106805567,Haenyeo,Korean,PRICE_LEVEL_MODERATE
ChIJQ1ZCUkRZwokRYKlkqQijGHg,Forma Pasta Factory,"14 Bedford Ave, Brooklyn, NY 11222, USA",4.6,1927.0,PRICE_LEVEL_MODERATE,italian_restaurant,40.7237929,-73.9515182,https://www.formapasta.com/,forma pasta factory,0.08986429696862339,36.92162843637652,Restaurant Yuu,French Contemporary,
ChIJ1dUY9kRZwokR7lu8aF4zj-Y,Five Leaves,"18 Bedford Ave, Brooklyn, NY 11222, USA",4.3,2590.0,PRICE_LEVEL_MODERATE,american_restaurant,40.723737199999995,-73.95163509999999,https://fiveleavesny.com/,five leaves,0.0783427685498688,35.55988677740157,Restaurant Yuu,French Contemporary,
ChIJSzY_qqtZwokRiLyLL2_upv0,The Best Sichuan 一品成都39,"47 W 39th St, New York, NY 10018, USA",4.7,3324.0,PRICE_LEVEL_MODERATE,meal_delivery,40.7527574,-73.9845295,http://www.bestsichuan.com/,the best sichuan 39,0.05001036446107525,37.8998756264671,Peppercorn Station,Chinese,PRICE_LEVEL_MODERATE
ChIJD5cnWqpZwokR8h2yqOtN4h0,Parker & Quinn,"64 W 39th St, New York, NY 10018, USA",4.6,3001.0,PRICE_LEVEL_MODERATE,american_restaurant,40.752586199999996,-73.9850713,https://parkerandquinn.com/,parker quinn,0.011721070390607083,37.85934715531271,Peppercorn Station,Chinese,PRICE_LEVEL_MODERATE
ChIJnYkfZqpZwokRLxGbURXlMfQ,Calle Dao,"38 W 39th St, New York, NY 10018, USA",4.4,1408.0,PRICE_LEVEL_MODERATE,restaurant,40.752167,-73.984218,https://www.calledao.com/location/calle-dao-bryant-park/,calle dao,0.058991744848022956,35.372099061823725,Szechuan Gourmet,Chinese,PRICE_LEVEL_MODERATE
ChIJ2YwyMVhZwokRE47dTb7x1fo,Okonomi,"150 Ainslie St, Brooklyn, NY 11211, USA",4.5,1362.0,PRICE_LEVEL_EXPENSIVE,japanese_restaurant,40.7125269,-73.9487831,https://www.okonomi.us/,okonomi,0.019516593513077385,35.88580087784307,Rose Marie,American Contemporary,
ChIJ7RscS1hZwokRyH3c7IILpOY,Suzume,"545 Lorimer St, Brooklyn, NY 11211, USA",4.5,646.0,PRICE_LEVEL_MODERATE,asian_fusion_restaurant,40.71321460000001,-73.94939409999999,http://www.suzumebk.com/,suzume,0.08403147245419237,27.951622330549693,Rose Marie,American Contemporary,
ChIJNSSMrUVZwokRQP7J5TwWUAE,Keg & Lantern Greenpoint,"97 Nassau Ave, Brooklyn, NY 11222, USA",4.4,722.0,PRICE_LEVEL_MODERATE,brewpub,40.7241108,-73.9503312,http://www.kegandlanternbrooklyn.com/,keg lantern greenpoint,0.060911166216438446,28.489066005402737,Taqueria El Chato,Mexican,
ChIJayMXxXBZwokRq41Uj462dS0,Breeze,"595 Manhattan Ave, Brooklyn, NY 11222, USA",4.8,472.0,PRICE_LEVEL_MODERATE,chinese_restaurant,40.7230018,-73.95061489999999,https://breezebk.com/,breeze,0.06552228490212847,27.933732581174457,Taqueria El Chato,Mexican,
ChIJd8Z4NaRbwokRwSX1ZmI52Ys,Chuko,"565 Vanderbilt Ave, Brooklyn, NY 11238, USA",4.3,1105.0,PRICE_LEVEL_MODERATE,ramen_restaurant,40.6807775,-73.96745349999999,http://chukobk.com/,chuko,0.09715319686203144,31.38416163765562,Alta Calidad,Mexican,PRICE_LEVEL_MODERATE
ChIJbVI3oa9bwokR6VM3znI0sTY,OMAR'S INDIAN FINE CUISINE,"568 Vanderbilt Ave, Brooklyn, NY 11238, USA",4.6,574.0,PRICE_LEVEL_MODERATE,indian_restaurant,40.6796734,-73.968425,https://omarsfoodny.com/,omars indian fine cuisine,0.05369803482040455,28.09562358215515,Alta Calidad,Mexican,PRICE_LEVEL_MODERATE
ChIJy8bgw3pZwokRYJHx1dj1d8s,Enerugi Ramen,"1020 Manhattan Ave, Brooklyn, NY 11222, USA",4.7,405.0,PRICE_LEVEL_MODERATE,ramen_restaurant,40.7338708,-73.954678,https://www.enerugiramen.com/,enerugi ramen,0.08344022432308153,26.548717308123024,ILIS,Scandinavian,
ChIJ8ZS2tQ1ZwokRaLwnFuPSNH0,Little Tiffin,"970 Manhattan Ave, Brooklyn, NY 11222, USA",4.7,432.0,PRICE_LEVEL_MODERATE,thai_restaurant,40.732257499999996,-73.9543803,https://littletiffinbrooklyn.com/,little tiffin,0.16754444633619853,25.809466643965617,ILIS,Scandinavian,
ChIJ_VN84QBZwokRujYAx51sTRI,Dig Inn,"286 Madison Ave, New York, NY 10017, USA",4.3,727.0,PRICE_LEVEL_INEXPENSIVE,american_restaurant,40.7517681,-73.9803915,https://www.diginn.com/,dig inn,0.10328040573582352,27.53063513117012,Sushi Sho,Japanese,
ChIJ8-Y8XgBZwokRoUtBlS4Vse4,The Bar Downstairs & Kitchen,"485 5th Ave at, E 41st St, New York, NY 10017, USA",4.4,463.0,PRICE_LEVEL_EXPENSIVE,restaurant,40.752862799999996,-73.98102759999999,https://www.bardownstairs.com/?utm_source=google&utm_medium=lastmile&utm_campaign=nycam-r-bard,the bar downstairs kitchen,0.0344493036088123,26.216608356694252,Sushi Sho,Japanese,
ChIJW29zqQFZwokRBszElAdboKA,Pera Mediterranean Brasserie,"303 Madison Ave, New York, NY 10017, USA",4.2,834.0,PRICE_LEVEL_EXPENSIVE,mediterranean_restaurant,40.752326499999995,-73.9794277,http://www.peranyc.com/,pera mediterranean brasserie,0.10635187446562124,28.063777506412546,Jōji,Japanese,
ChIJR9legAFZwokRY2BpDp3jsNc,Cipriani Dolci,"Grand Central Terminal, 89 E 42nd St West Balcony, New York, NY 10017, USA",4.2,810.0,PRICE_LEVEL_EXPENSIVE,italian_restaurant,40.7528997,-73.97761129999999,https://www.cipriani.com/cipriani-dolci?utm_source=gbp&utm_medium=organic&utm_campaign=gbp-dolci-grand-central,cipriani dolci,0.09017636611074945,28.017883606671006,Jōji,Japanese,
ChIJe0Zw0yP9ZUAR9BhsehAD-qo,Tsushima,"210 E 44th St, New York, NY 10017, USA",4.2,471.0,PRICE_LEVEL_MODERATE,japanese_restaurant,40.7516422,-73.9728019,https://tsushimany.com/,tsushima,0.0565849116059902,25.03098106072812,Izakaya Futago,Japanese,PRICE_LEVEL_MODERATE
ChIJqSwWaP5ZwokRuHaHr43H39o,Fandi Mata,"74 Bayard St, Brooklyn, NY 11222, USA",4.7,4382.0,PRICE_LEVEL_MODERATE,restaurant,40.7188471,-73.94925309999999,https://www.fandimata.com/,fandi mata,0.2640542103394127,35.33134947592705,Bonnie's,Cantonese,PRICE_LEVEL_MODERATE
ChIJBZgoL1FZwokR5RVxxTA2NRw,Mesa Coyoacan,"372 Graham Ave, Brooklyn, NY 11211, USA",4.5,944.0,PRICE_LEVEL_MODERATE,mexican_restaurant,40.7155372,-73.9443114,http://mesacoyoacan.com/,mesa coyoacan,0.30940227940699083,28.227172647116106,Bonnie's,Cantonese,PRICE_LEVEL_MODERATE
ChIJR-CHa1VYwokRKTaWr1rLqLc,Hunt & Fish Club,"125 W 44th St, New York, NY 10036, USA",4.4,1042.0,PRICE_LEVEL_EXPENSIVE,steak_house,40.756771,-73.9842496,http://hfcnyc.com/,hunt fish club,0.04384820376881148,31.893821554774263,The Lambs Club,Steakhouse,PRICE_LEVEL_EXPENSIVE
ChIJ85GwdFhZwokRWyEFl-9Z8z4,Desy's Clam,"672 Grand St, Brooklyn, NY 11211, USA",4.4,373.0,PRICE_LEVEL_MODERATE,italian_restaurant,40.7113957,-73.9454842,https://www.desysrestaurant.com/,desys clam,0.07287744213268967,24.855470694407725,Ammazzacaffè,Italian,PRICE_LEVEL_MODERATE
ChIJi8RfHn9ZwokRX4JhQfohIxg,Barnea Bistro,"211 E 46th St, New York, NY 10017, USA",4.8,1660.0,PRICE_LEVEL_VERY_EXPENSIVE,restaurant,40.7532168,-73.9718218,http://barneabistro.com/,barnea bistro,0.0829330293696391,38.00480364756433,Veerays,Indian,
ChIJY8nVpQJZwokR1SyYE-gyalA,Sparks Steak House,"210 E 46th St, New York, NY 10017, USA",4.5,2528.0,PRICE_LEVEL_VERY_EXPENSIVE,steak_house,40.7529737,-73.9720665,https://sparkssteakhouse.com/,sparks steak house,0.04968908552993105,36.903730973640826,Veerays,Indian,
ChIJ75I1P_xbwokRjSgYh09toAY,Sweet Science,"135 Graham Ave, Brooklyn, NY 11206, USA",4.2,1452.0,PRICE_LEVEL_MODERATE,american_restaurant,40.7064375,-73.943238,http://sweetsciencebklyn.com/,sweet science,0.1732020641226452,33.44157523052825,Casa Ora,Venezuelan,PRICE_LEVEL_MODERATE
ChIJcWpUuP1bwokR8byoOjkyyIA,Warique Garden,"181 Graham Ave, Brooklyn, NY 11206, USA",4.7,371.0,PRICE_LEVEL_MODERATE,peruvian_restaurant,40.7082443,-73.943542,,warique garden,0.038515132885274056,26.747818405376712,Casa Ora,Venezuelan,PRICE_LEVEL_MODERATE
ChIJrcgBgP5bwokR1EhKSdZkck0,The Brooklyn Tree,"188 Montrose Ave, Brooklyn, NY 11206, USA",4.5,517.0,PRICE_LEVEL_MODERATE,american_restaurant,40.7073209,-73.94184659999999,http://www.thebrooklyntree.com/,the brooklyn tree,0.09474730520911556,26.533032337490614,Win Son,Chinese,PRICE_LEVEL_MODERATE
ChIJKaodeNhZwokRsu8YloqftpY,Yumpling,"49-11 Vernon Blvd, Long Island City, NY 11101, USA",4.7,1055.0,PRICE_LEVEL_INEXPENSIVE,taiwanese_restaurant,40.7430199,-73.95382289999999,http://www.yumpling.com/,yumpling,0.132430180725893,32.46083783128928,Meju,Korean,
ChIJh_i0biNZwokR7X8nFpR4L8g,Takumen,"5-50 50th Ave, Long Island City, NY 11101, USA",4.4,852.0,PRICE_LEVEL_MODERATE,ramen_restaurant,40.742736,-73.9546542,http://www.takumenlic.com/,takumen,0.10073097570923073,29.31122829148923,Meju,Korean,
ChIJXz1QXE5ZwokRLwJIVmQhyEc,The Dickens,"783 8th Ave, New York, NY 10036, USA",4.8,2138.0,PRICE_LEVEL_MODERATE,cocktail_bar,40.760937,-73.9875069,https://www.thedickensnyc.com/,the dickens,0.05244307863101114,38.370683056427865,Gui,Steakhouse,
ChIJhWjFglZYwokR755nbhxKDlo,P.S. Kitchen,"246 W 48th St, New York, NY 10036, USA",4.6,2168.0,PRICE_LEVEL_MODERATE,vegan_restaurant,40.760706899999995,-73.9866258,https://www.ps-kitchen.com/,ps kitchen,0.04256542753446859,37.48921486958638,Gui,Steakhouse,
ChIJpTLU3yBZwokRaFM3CwYVzoE,Valla Table,"641 10th Ave, New York, NY 10036, USA",4.9,5094.0,PRICE_LEVEL_MODERATE,thai_restaurant,40.7619051,-73.9941576,http://vallatable.com/,valla table,0.058789297310926296,38.79452843226888,Kochi,Korean,
ChIJUWd2llFYwokR7LA8HroSFMk,Añejo,"668 10th Ave, New York, NY 10036, USA",4.4,1798.0,PRICE_LEVEL_MODERATE,mexican_restaurant,40.762613099999996,-73.9929993,https://www.anejonyc.com/,aejo,0.07954090800359316,36.04550910395688,Kochi,Korean,
ChIJI8QZECNZwokRJ6nKtIJ_gCw,Café Henri,"10-10 50th Ave, Long Island City, NY 11101, USA",4.4,1114.0,PRICE_LEVEL_MODERATE,french_restaurant,40.7425899,-73.9538049,https://cafehenrilic.com/,caf henri,0.10293532834615139,31.904776059846185,Casa Enrique,Mexican,PRICE_LEVEL_MODERATE
ChIJdzA_eiNZwokRUYzjF1dcHko,Tuk Tuk,"49-06 Vernon Blvd, Long Island City, NY 11101, USA",4.4,816.0,PRICE_LEVEL_MODERATE,thai_restaurant,40.743192,-73.95411899999999,https://tuktukny.com/,tuk tuk,0.03247529098657225,29.770296508161135,Casa Enrique,Mexican,PRICE_LEVEL_MODERATE
ChIJST_wp-JawokR7YI20ZNc08g,Tenichi Ramen,"382 7th Ave, Brooklyn, NY 11215, USA",4.8,2148.0,PRICE_LEVEL_MODERATE,ramen_restaurant,40.6654323,-73.98304619999999,https://www.tenichiramen.com/,tenichi ramen,0.06863561584066451,38.17637260991203,Runner Up,American,
ChIJm64qlQJbwokREPRAPefjP2I,7th Ave Donuts & Diner,"324 7th Ave, Brooklyn, NY 11215, USA",4.4,1328.0,PRICE_LEVEL_INEXPENSIVE,diner,40.6672739,-73.9815347,http://order.toasttab.com/online/7th-ave-donuts,7th ave donuts diner,0.193470141066529,32.95835830720165,Runner Up,American,
ChIJJShUrP5YwokRAwaeDZZccMw,Limani,"45 Rockefeller Plaza, New York, NY 10111, USA",4.3,1253.0,PRICE_LEVEL_EXPENSIVE,mediterranean_restaurant,40.7594208,-73.97784879999999,https://limani.com/?utm_source=GMB&utm_medium=NYC&utm_campaign=website,limani,0.09738690447794127,32.86135714626471,Jupiter,Italian,
ChIJj0EtEZRZwokRYi9Wk-lvJUU,5 Acres Restaurant,"Rockefeller Plaza, New York, NY 10112, USA",4.3,601.0,PRICE_LEVEL_MODERATE,american_restaurant,40.758829999999996,-73.9787904,https://www.5acresnyc.com/,5 acres restaurant,0.008541222427848816,27.407505330865813,Jupiter,Italian,
ChIJU2zak-RYwokRNvszpehgiIs,Omar Mediterranean Cuisine,"154 E 55th St, New York, NY 10022, USA",4.5,1028.0,PRICE_LEVEL_INEXPENSIVE,mediterranean_restaurant,40.7590761,-73.9692618,http://omars.nyc/,omar mediterranean cuisine,0.025532290595722075,32.47361251285134,Kung Fu Little Steamed Buns Ramen,Chinese,PRICE_LEVEL_INEXPENSIVE
ChIJ2wL-asVZwokRrSZ6SA-kMsg,Kati Shop,"162 E 55th St, New York, NY 10022, USA",4.8,388.0,PRICE_LEVEL_INEXPENSIVE,thai_restaurant,40.75904,-73.9689337,https://www.katishopnyc.com/,kati shop,0.052091994781180394,27.254896062625836,Kung Fu Little Steamed Buns Ramen,Chinese,PRICE_LEVEL_INEXPENSIVE
ChIJp5kwBeFZwokR4sUE1kJv5WA,FIELDTRIP,"30 Rockefeller Plaza Concourse Level, New York, NY 10112, USA",4.3,309.0,PRICE_LEVEL_MODERATE,american_restaurant,40.759107,-73.9790921,https://www.fieldtripnyc.com/,fieldtrip,0.07635130499412945,23.673784340070448,Le Rock,Contemporary,
ChIJZ3o4EVZYwokRf3evFti1FLs,Junior's Restaurant and Bakery,"1626 Broadway at, W 49th St, New York, NY 10019, USA",4.4,12786.0,PRICE_LEVEL_MODERATE,american_restaurant,40.760892299999995,-73.9841591,http://www.juniorscheesecake.com/,juniors restaurant and bakery,0.06936698211275405,36.16759621464695,See No Evil Pizza,Pizza,PRICE_LEVEL_MODERATE
ChIJzRA7agBZwokRbSxOyEGFG5U,Din Tai Fung 鼎泰豐,"1633 Broadway, New York, NY 10022, USA",4.3,2187.0,PRICE_LEVEL_MODERATE,taiwanese_restaurant,40.7621135,-73.98400219999999,https://dtf.com/en/locations/new-york,din tai fung ,0.08565480555666748,35.472142333319994,See No Evil Pizza,Pizza,PRICE_LEVEL_MODERATE
ChIJEdfcByRZwokRQe04uT7LBNY,Blend LIC,"47-04 Vernon Blvd, Long Island City, NY 11101, USA",4.5,1843.0,PRICE_LEVEL_MODERATE,latin_american_restaurant,40.745294,-73.9534122,https://www.blendlic.com/,blend lic,0.03182003398537357,37.118159592175516,R40,Argentinian,
ChIJo-tLTNRYwokR_dBaFxKpJ2Y,THE BARONESS,"47-18 Vernon Blvd, Long Island City, NY 11101, USA",4.4,1359.0,PRICE_LEVEL_MODERATE,bar_and_grill,40.744945699999995,-73.95351959999999,http://www.thebaronessbar.com/,the baroness,0.007983339939796283,35.49419992072245,R40,Argentinian,
ChIJC6xz-lZYwokRd5Gv26A3RMA,The Blue Dog Cookhouse & Bar,"308 W 50th St, New York, NY 10019, USA",4.4,2921.0,PRICE_LEVEL_MODERATE,american_restaurant,40.762557199999996,-73.98696679999999,http://www.bluedognyc.com/,the blue dog cookhouse bar,0.02346927776682575,36.71836866679809,Don Antonio,Pizza,PRICE_LEVEL_MODERATE
ChIJB9vaBFdYwokRketCYydnSBM,IPPUDO Westside,"321 W 51st St, New York, NY 10019, USA",4.5,5188.0,PRICE_LEVEL_MODERATE,restaurant,40.76349,-73.98659599999999,https://www.ippudous.com/westside,ippudo westside,0.0926147619742754,36.38862285630869,Don Antonio,Pizza,PRICE_LEVEL_MODERATE
ChIJL5LTk6BbwokR3mzzfg3LbUo,Shane's Brooklyn,"794 Washington Ave, Brooklyn, NY 11238, USA",4.3,1315.0,PRICE_LEVEL_MODERATE,american_restaurant,40.6742169,-73.963273,https://shanes-brooklyn.shop/,shanes brooklyn,0.15534753773359283,32.78582954719688,Cafe Mado,American Contemporary,PRICE_LEVEL_MODERATE
ChIJEw4ChqBbwokRL_uKMHIa7kE,Eve's Lounge,"769 Washington Ave, Brooklyn, NY 11238, USA",4.4,912.0,PRICE_LEVEL_MODERATE,restaurant,40.673870099999995,-73.9628137,https://eves769.com/,eves lounge,0.10808907674278029,29.822931079086633,Cafe Mado,American Contemporary,PRICE_LEVEL_MODERATE
ChIJvZ0A4FBZwokR3__wBQO-f_E,EZ Paella & Tapas,"744 9th Ave, New York, NY 10019, USA",4.8,3257.0,PRICE_LEVEL_MODERATE,spanish_restaurant,40.763601400000006,-73.98865289999999,http://www.ezpaella.com/,ez paella tapas,0.04877379445764134,38.4147144665083,Chalong,Thai,PRICE_LEVEL_MODERATE
ChIJyR90JKxZwokRZc9iRIEIs3w,Aqua Boil,"750 9th Ave, New York, NY 10019, USA",4.7,3010.0,PRICE_LEVEL_MODERATE,seafood_restaurant,40.7637639,-73.9885489,http://www.aquaboilnyc.com/,aqua boil,0.04315961080589106,37.98208467032931,Chalong,Thai,PRICE_LEVEL_MODERATE
ChIJqzfjYOJawokRLcfc3N0GAMA,Baciccia,"426A 7th Ave, Brooklyn, NY 11215, USA",4.7,378.0,PRICE_LEVEL_MODERATE,italian_restaurant,40.663753,-73.9843822,https://bacicciabrooklyn.com/,baciccia,0.07463124703434755,26.38442503558783,LORE,Contemporary,
ChIJ4VBHoB1bwokRs_4cudpKjpY,Provini,"1302 8th Ave, Brooklyn, NY 11215, USA",4.6,423.0,PRICE_LEVEL_MODERATE,italian_restaurant,40.663331899999996,-73.981438,http://provini.us/,provini,0.25157827488914153,24.211060701330304,LORE,Contemporary,
ChIJ8b70m_tYwokRqGwQgnijLEc,Empellon,"510 Madison Ave, New York, NY 10022, USA",4.4,1122.0,PRICE_LEVEL_EXPENSIVE,mexican_restaurant,40.75970220000001,-73.9746995,https://www.empellon.com/restaurants/empellon/,empellon,0.040958530672789824,32.72849763192652,Santi,Italian Contemporary,
ChIJE7B5zG1ZwokR85loO7ZJY6o,The Lunch Box,"3 E 53rd St, New York, NY 10022, USA",4.9,520.0,PRICE_LEVEL_INEXPENSIVE,restaurant,40.7602335,-73.97504599999999,,the lunch box,0.04551422237621317,29.15382933148544,Santi,Italian Contemporary,
ChIJqZ5ObvlYwokRhm9I3a2de8I,Fogo de Chão Brazilian Steakhouse,"40 W 53rd St, New York, NY 10019, USA",4.5,9879.0,PRICE_LEVEL_EXPENSIVE,brazilian_restaurant,40.7610957,-73.9777572,https://fogodechao.com/location/new-york/,fogo de cho brazilian steakhouse,0.07987543451058665,36.54149478587296,53,Asian,PRICE_LEVEL_EXPENSIVE
ChIJlbtXLfpYwokR7uNWBCLt7hI,Il Gattopardo,"13-15 W 54th St, New York, NY 10019, USA",4.5,818.0,PRICE_LEVEL_VERY_EXPENSIVE,italian_restaurant,40.761674,-73.97637069999999,http://ilgattopardonyc.com/,il gattopardo,0.07338008877684042,29.799438934677916,The Modern,Contemporary,PRICE_LEVEL_VERY_EXPENSIVE
ChIJsZiFN1dYwokRtB35FstjkA4,Empanada Mama Hell’s Kitchen,"765 9th Ave, Manhattan, NY 10019, USA",4.4,5657.0,PRICE_LEVEL_MODERATE,latin_american_restaurant,40.764437,-73.9885436,https://www.empanadamama.com/hells-kitchen-location,empanada mama hells kitchen,0.07894833651435128,36.05261996182779,Hyderabadi Zaiqa,Indian,PRICE_LEVEL_MODERATE
ChIJuewgle5ZwokRmsEEEQE0xPI,Norma Hell's Kitchen,"801 9th Ave, New York, NY 10019, USA",4.6,1221.0,PRICE_LEVEL_MODERATE,italian_restaurant,40.7656075,-73.9878217,http://www.normarestaurant.com/,norma hells kitchen,0.06478007749302214,34.43263907008374,Hyderabadi Zaiqa,Indian,PRICE_LEVEL_MODERATE
ChIJY2_4VvpYwokRXjgsYKtUXOU,The Polo Bar,"1 E 55th St, New York, NY 10022, USA",4.4,1124.0,PRICE_LEVEL_VERY_EXPENSIVE,restaurant,40.76155,-73.97439609999999,https://www.ralphlauren.com/global-polo-bar?y_source=1_MTMwNzQ5MjAtNzE1LWxvY2F0aW9uLndlYnNpdGU%3D,the polo bar,0.09850512742650158,32.057938470881986,Caviar Russe,Contemporary,PRICE_LEVEL_VERY_EXPENSIVE
ChIJ_YRY8BlZwokR8m3JbEtPM1s,Westville Hell's Kitchen,"809 9th Ave, New York, NY 10019, USA",4.6,912.0,PRICE_LEVEL_MODERATE,american_restaurant,40.7658086,-73.98756209999999,https://westville.com/locations/westville-hells-kitchen/,westville hells kitchen,0.01669876932163047,31.91961476814043,YingTao,Contemporary,
ChIJ_zzgX_pZwokRWOykKXmbHB4,Jerk House Caribbean Restaurant,"132 E 56th St, New York, NY 10022, USA",4.8,1560.0,PRICE_LEVEL_MODERATE,restaurant,40.7603114,-73.9700904,http://lovesomejerk.com/,jerk house caribbean restaurant,0.09884687484683256,37.81383750183801,Four Twenty Five,Contemporary,
ChIJfYqvteRYwokR1I0wCpXMG8Y,Mike's Bistro,"127 E 54th St, New York, NY 10022, USA",4.7,1082.0,PRICE_LEVEL_VERY_EXPENSIVE,bistro,40.7594553,-73.9710257,http://www.mikesbistro.com/,mikes bistro,0.12018958131458747,32.87772502422495,Four Twenty Five,Contemporary,
ChIJC2cqQEhbwokRxC2JSiGx2Vw,RAS Plant Based,"739 Franklin Ave, Brooklyn, NY 11238, USA",4.8,1331.0,PRICE_LEVEL_MODERATE,vegan_restaurant,40.6733958,-73.95669029999999,http://www.rasplantbased.com/,ras plant based,0.04556103396897458,36.76326759237231,Chavela’s,Mexican,PRICE_LEVEL_MODERATE
ChIJhQCuY3VbwokRanBob6BoCrI,Franklin Park,"766 Franklin Avenue, 618 St Johns Pl, Brooklyn, NY 11238, USA",4.3,1614.0,PRICE_LEVEL_MODERATE,beer_garden,40.672276499999995,-73.95787109999999,https://www.franklinparkbk.com/,franklin park,0.14202238419151894,34.79573138970177,Chavela’s,Mexican,PRICE_LEVEL_MODERATE
ChIJncjrqQFcwokRZZzyxeY-tlQ,Otis,"18 Harrison Pl, Brooklyn, NY 11206, USA",4.8,1056.0,PRICE_LEVEL_MODERATE,american_restaurant,40.7060683,-73.93261,http://www.otisbk.com/,otis,0.1370572468512485,32.91531303778502,Roberta's,Pizza,PRICE_LEVEL_MODERATE
ChIJj3wp_s9dwokR7Un5iO5zaEI,Semkeh,"53 Morgan Ave Rear, Brooklyn, NY 11237, USA",4.6,630.0,PRICE_LEVEL_MODERATE,lebanese_restaurant,40.7057837,-73.9318979,https://semkeh.com/,semkeh,0.1621458562144489,27.354249725426612,Roberta's,Pizza,PRICE_LEVEL_MODERATE
ChIJd9i34HRbwokRs7RdxDgrLDc,Ital Kitchen,"1032 Union St, Brooklyn, NY 11225, USA",4.7,345.0,PRICE_LEVEL_MODERATE,vegetarian_restaurant,40.6695864,-73.9580063,https://www.italkitchenbk.com/,ital kitchen,0.05706363666124589,26.26523636006505,Agi's Counter,Creative,PRICE_LEVEL_MODERATE
ChIJD6W7CwBbwokRwO5z7BMo7-M,Briscola Trattoria,"798a Franklin Ave, Brooklyn, NY 11238, USA",4.7,321.0,PRICE_LEVEL_MODERATE,italian_restaurant,40.671197299999996,-73.9579399,http://briscolabrooklyn.com/,briscola trattoria,0.13682819950589675,25.06806160592924,Agi's Counter,Creative,PRICE_LEVEL_MODERATE
ChIJmRemOORYwokReY6bF8svc-k,Lips Drag Queen Show Palace Restaurant & Bar,"227 E 56th St, New York, NY 10022, USA",4.5,1575.0,PRICE_LEVEL_MODERATE,performing_arts_theater,40.7592528,-73.9668861,http://www.lipsnyc.com/,lips drag queen show palace restaurant bar,0.14143152513591709,35.802821698368994,Chola,Indian,PRICE_LEVEL_MODERATE
ChIJ2wjfy-VYwokRFCDXmpP1rH4,Bloom's Tavern,"208 E 58th St, New York, NY 10022, USA",4.4,994.0,PRICE_LEVEL_MODERATE,bar_and_grill,40.7605255,-73.9665898,http://www.bloomsnyc.com/,blooms tavern,0.0767085503563161,31.019497395724205,Chola,Indian,PRICE_LEVEL_MODERATE
ChIJg6OpQ0pdwokR68uFIZ_SPsE,El Santo,"1053 Flushing Ave, Brooklyn, NY 11237, USA",4.5,534.0,PRICE_LEVEL_MODERATE,mexican_restaurant,40.704347299999995,-73.93026909999999,http://www.elsantotaqueriabklyn.com/,el santo,0.23420544146806627,25.029534702383206,Sobre Masa,Mexican,PRICE_LEVEL_MODERATE
ChIJB6L7g-9YwokRTm44C_ToKdw,Amali NYC,"115 E 60th St, New York, NY 10022, USA",4.3,563.0,PRICE_LEVEL_EXPENSIVE,mediterranean_restaurant,40.763369399999995,-73.96856269999999,https://www.amalinyc.com/,amali nyc,0.043475814561626455,26.608290225260482,Le Veau d'Or,French,PRICE_LEVEL_EXPENSIVE
ChIJYeDVpepYwokR7q9MIzb8CY4,TBar,"116 E 60th St, New York, NY 10022, USA",4.4,392.0,PRICE_LEVEL_EXPENSIVE,american_restaurant,40.763048,-73.96870919999999,http://tbar.nyc/,tbar,0.058090898799674134,25.222909214403913,Le Veau d'Or,French,PRICE_LEVEL_EXPENSIVE
ChIJoxuT5Y5bwokR4BUNuEswrcI,Peaches HotHouse,"415 Tompkins Ave, Brooklyn, NY 11216, USA",4.4,1992.0,PRICE_LEVEL_MODERATE,american_restaurant,40.6833818,-73.9437578,https://www.bcrestaurantgroup.com/location/peaches-hot-house-bed-stuy/,peaches hothouse,0.22368061113996704,34.3158326663204,Daphne's,Italian-American,
ChIJD4Pkzo1bwokRT8tURQ6KU68,WARUDE,"385 Tompkins Ave, Brooklyn, NY 11216, USA",4.6,725.0,PRICE_LEVEL_MODERATE,asian_fusion_restaurant,40.684369499999995,-73.94395999999999,http://www.warude.com/,warude,0.28004991857244343,26.889400977130677,Daphne's,Italian-American,
ChIJYfgPUEFZwokRZ5mk9JqnxSc,Sea Salt NYC,"1123 1st Ave, New York, NY 10065, USA",4.7,1085.0,PRICE_LEVEL_MODERATE,mediterranean_restaurant,40.7612933,-73.9609656,http://www.seasaltsnyc.com/,sea salt nyc,0.08016678604055183,33.38799856751338,Lungi,Sri Lankan,PRICE_LEVEL_MODERATE
ChIJA3C4DuhYwokR2UT5yg9AZR0,Moti Mahal Delux,"1149 1st Ave, New York, NY 10065, USA",4.2,801.0,PRICE_LEVEL_MODERATE,indian_restaurant,40.7621148,-73.9603867,,moti mahal delux,0.05161384769108325,28.390633827707,Lungi,Sri Lankan,PRICE_LEVEL_MODERATE
ChIJzdIV2eNZwokRxSJvbX8IIZ0,Gulp,"42-45 27th St, Long Island City, NY 11101, USA",4.9,2839.0,PRICE_LEVEL_MODERATE,taiwanese_restaurant,40.7489798,-73.9406497,https://www.gulpjiabun.com/,gulp,0.14745165243265304,37.73058017080816,Vert Frais,Japanese,PRICE_LEVEL_MODERATE
ChIJzzk5JypZwokRQ0tuDC9Cwr8,Levante,"26-21 Jackson Ave, Long Island City, NY 11101, USA",4.3,954.0,PRICE_LEVEL_MODERATE,italian_restaurant,40.747557,-73.9416924,http://levantelic.com/,levante,0.15521465824328928,29.17742410108053,Vert Frais,Japanese,PRICE_LEVEL_MODERATE
ChIJk_Dtk19YwokRF5wWFVytjQM,Lincoln Ristorante,"142 W 65th St, New York, NY 10023, USA",4.3,525.0,PRICE_LEVEL_VERY_EXPENSIVE,italian_restaurant,40.77337010000001,-73.983728,https://www.lincolnristorante.com/,lincoln ristorante,0.08352573323565,25.7476912011722,Tatiana,Fusion,PRICE_LEVEL_VERY_EXPENSIVE
ChIJeSZBWPpYwokR8YKIpFMSEd0,Armani/Ristorante,"760 Madison Ave, New York, NY 10065, USA",4.5,444.0,PRICE_LEVEL_VERY_EXPENSIVE,restaurant,40.7676012,-73.9687464,https://www.armani.com/en-us/armani-restaurant/experience/armani-ristorante-new-york/,armaniristorante,0.13218785477559183,25.3537457426929,Daniel,French,PRICE_LEVEL_VERY_EXPENSIVE
ChIJ08MLBmBYwokRxbNqoyW56oQ,Old John's Luncheonette,"148 W 67th St, New York, NY 10023, USA",4.4,1528.0,PRICE_LEVEL_MODERATE,diner,40.775199099999995,-73.9836383,https://iloveoldjohns.com/,old johns luncheonette,0.015075371252377437,36.81909554497147,El Fish Marisqueria,Mexican,PRICE_LEVEL_MODERATE
ChIJHfdQ64pYwokR02vspl-2oMk,Noi Due Carne,"141 W 69th St, New York, NY 10023, USA",4.8,1167.0,PRICE_LEVEL_MODERATE,italian_restaurant,40.7762472,-73.98146539999999,http://noiduecarne.com/,noi due carne,0.22923092056346045,32.91922895323847,El Fish Marisqueria,Mexican,PRICE_LEVEL_MODERATE
ChIJp-V3XrpYwokRwqFX-9bZQF8,Peng's Noodle Folk,"1016 Lexington Ave, New York, NY 10021, USA",4.7,730.0,PRICE_LEVEL_INEXPENSIVE,ramen_restaurant,40.77098730000001,-73.96209979999999,https://www.pengsnoodlefolk.com/,pengs noodle folk,0.19781977576608095,28.42616269080703,Cafe Commerce,American,
ChIJt1jhrutYwokRMG84lxydIuQ,Brasserie Cognac Upper East Side,"963 Lexington Ave, corner of, E 70th St, New York, NY 10021, USA",4.4,552.0,PRICE_LEVEL_EXPENSIVE,french_restaurant,40.7691295,-73.9629004,https://www.brasseriecognac.com/,brasserie cognac upper east side,0.04627825282390478,26.964660966113144,Cafe Commerce,American,
ChIJO_MlXh1cwokR1YDm45sn_Wo,Sea Wolf Brooklyn,"19 Wyckoff Ave, Brooklyn, NY 11237, USA",4.3,2461.0,PRICE_LEVEL_MODERATE,seafood_restaurant,40.706868799999995,-73.9227815,https://www.seawolfbk.com/,sea wolf brooklyn,0.22961548866542209,33.74461413601493,Tong,Thai,PRICE_LEVEL_MODERATE
ChIJA5X-O_NfwokRuYuGvy82R_I,Za-Ya,"321 Starr St Suite D, Brooklyn, NY 11237, USA",4.7,247.0,PRICE_LEVEL_MODERATE,japanese_restaurant,40.7080109,-73.9204017,http://www.za-ya.com/,zaya,0.007809422029573284,25.87628693564512,Tong,Thai,PRICE_LEVEL_MODERATE
ChIJWbVgsRRbwokRA8DSvuD9JrA,Bonafini Italian Restaurant,"663 Flatbush Ave, Brooklyn, NY 11225, USA",4.5,1078.0,PRICE_LEVEL_MODERATE,italian_restaurant,40.657024299999996,-73.959977,https://www.bonafinibk.com/,bonafini italian restaurant,0.10825656146622922,31.98092126240525,Risbo,American,PRICE_LEVEL_MODERATE
ChIJry4T9ipbwokRuu2fNpIxvCk,Jauja Mexican Kitchen,"695 Flatbush Ave, Brooklyn, NY 11225, USA",4.5,220.0,PRICE_LEVEL_MODERATE,mexican_restaurant,40.6562864,-73.9597861,https://jauja.nyc/,jauja mexican kitchen,0.02500777457053884,24.399906705153533,Risbo,American,PRICE_LEVEL_MODERATE
ChIJ4_RFEhlZwokRpllSHqwT2HE,Bombay Chowk,"1378 1st Avenue, Bet 73 &, E 74th St, New York, NY 10021, USA",4.7,1744.0,PRICE_LEVEL_MODERATE,indian_restaurant,40.768779099999996,-73.95501519999999,https://www.bombaychowk.com/,bombay chowk,0.12784200219849381,36.965895973618075,Bohemian Spirit,Czech,PRICE_LEVEL_MODERATE
ChIJ0dUd6sBYwokRGHjmguTmyjw,Gnocchi House Bar (Former Numero 28),"1431 1st Ave, New York, NY 10021, USA",4.3,434.0,PRICE_LEVEL_MODERATE,italian_restaurant,40.769417999999995,-73.95514639999999,https://www.gnocchihousebarnyc.com/,gnocchi house bar former numero 28,0.11839316063108517,24.419282072426977,Bohemian Spirit,Czech,PRICE_LEVEL_MODERATE
ChIJfQ5BQMBYwokR7CxrwWOFFjw,Up Thai,"1411 2nd Ave, New York, NY 10021, USA",4.8,7838.0,PRICE_LEVEL_MODERATE,thai_restaurant,40.769951,-73.9578638,http://www.upthainyc.com/,up thai,0.017514442375253948,38.789826691496955,Persepolis,Persian,PRICE_LEVEL_MODERATE
ChIJz6VeesBYwokRNBYu4Sar8lw,THEP Thai Restaurant,"1439 2nd Ave, New York, NY 10021, USA",4.7,6268.0,PRICE_LEVEL_MODERATE,thai_restaurant,40.7707714,-73.9572357,http://www.thepnewyork.com/,thep thai restaurant,0.12292937406370594,37.02484751123553,Persepolis,Persian,PRICE_LEVEL_MODERATE
ChIJOZSQmepYwokRGyoFV_YPkbU,Dallas BBQ,"1265 3rd Ave, New York, NY 10021, USA",4.2,3615.0,PRICE_LEVEL_MODERATE,barbecue_restaurant,40.7700749,-73.9599131,https://dallasbbq.com/,dallas bbq,0.227659697567961,33.26808362918447,Chez Fifi,French,
ChIJm8GloepYwokRKQQXHlt9X9w,EJ's Luncheonette,"1271 3rd Ave, New York, NY 10021, USA",4.2,1326.0,PRICE_LEVEL_MODERATE,diner,40.770444,-73.9597299,http://www.ejsluncheonette.com/,ejs luncheonette,0.2079161646757355,31.76500602389117,Chez Fifi,French,
